id,year,fall,name,name_type,mass,latitude,longitude,type
1,1880-01-01T00:00:00.000,Fell,Aachen,Valid,21,50.775000,6.083330,Point
2,1951-01-01T00:00:00.000,Fell,Aarhus,Valid,720,56.183330,10.233330,Point
6,1952-01-01T00:00:00.000,Fell,Abee,Valid,107000,54.216670,-113.000000,Point
10,1976-01-01T00:00:00.000,Fell,Acapulco,Valid,1914,16.883330,-99.900000,Point
370,1902-01-01T00:00:00.000,Fell,Achiras,Valid,780,-33.166670,-64.950000,Point
379,1919-01-01T00:00:00.000,Fell,Adhi Kot,Valid,4239,32.100000,71.800000,Point
390,1949-01-01T00:00:00.000,Fell,Adzhi-Bogdo (stone),Valid,910,44.833330,95.166670,Point
392,1814-01-01T00:00:00.000,Fell,Agen,Valid,30000,44.216670,0.616670,Point
398,1930-01-01T00:00:00.000,Fell,Aguada,Valid,1620,-31.600000,-65.233330,Point
417,1920-01-01T00:00:00.000,Fell,Aguila Blanca,Valid,1440,-30.866670,-64.550000,Point
423,1974-01-01T00:00:00.000,Fell,Aioun el Atrouss,Valid,1000,16.398060,-9.570280,Point
424,1925-01-01T00:00:00.000,Fell,Aïr,Valid,24000,19.083330,8.383330,Point
425,1769-01-01T00:00:00.000,Fell,Aire-sur-la-Lys,Valid,,50.666670,2.333330,Point
426,1949-01-01T00:00:00.000,Fell,Akaba,Valid,779,29.516670,35.050000,Point
427,1838-01-01T00:00:00.000,Fell,Akbarpur,Valid,1800,29.716670,77.950000,Point
432,1959-01-01T00:00:00.000,Fell,Akwanga,Valid,3000,8.916670,8.433330,Point
433,1981-01-01T00:00:00.000,Fell,Akyumak,Valid,50000,39.916670,42.816670,Point
446,1957-01-01T00:00:00.000,Fell,Al Rais,Valid,160,24.416670,39.516670,Point
447,2001-01-01T00:00:00.000,Fell,Al Zarnkh,Valid,700,13.660330,28.960000,Point
448,1806-01-01T00:00:00.000,Fell,Alais,Valid,6000,44.116670,4.083330,Point
453,1766-01-01T00:00:00.000,Fell,Albareto,Valid,2000,44.650000,11.016670,Point
454,1949-01-01T00:00:00.000,Fell,Alberta,Valid,625,2.000000,22.666670,Point
458,2002-01-01T00:00:00.000,Fell,Alby sur Chéran,Valid,252,45.821330,6.015330,Point
461,1835-01-01T00:00:00.000,Fell,Aldsworth,Valid,700,51.783330,-1.783330,Point
462,1873-01-01T00:00:00.000,Fell,Aleppo,Valid,3200,36.233330,37.133330,Point
463,1860-01-01T00:00:00.000,Fell,Alessandria,Valid,908,44.883330,8.750000,Point
465,1900-01-01T00:00:00.000,Fell,Alexandrovsky,Valid,9251,50.950000,31.816670,Point
466,1883-01-01T00:00:00.000,Fell,Alfianello,Valid,228000,45.266670,10.150000,Point
2276,1899-01-01T00:00:00.000,Fell,Allegan,Valid,32000,42.533330,-85.883330,Point
2278,1969-01-01T00:00:00.000,Fell,Allende,Valid,2000000,26.966670,-105.316670,Point
48915,2008-01-01T00:00:00.000,Fell,Almahata Sitta,Valid,3950,20.745750,32.412750,Point
2284,1977-01-01T00:00:00.000,Fell,Alta'ameem,Valid,6000,35.273330,44.215560,Point
2290,1895-01-01T00:00:00.000,Fell,Ambapur Nagla,Valid,6400,27.666670,78.250000,Point
2294,1880-01-01T00:00:00.000,Fell,Andhara,Valid,2700,26.583330,85.566670,Point
2295,1898-01-01T00:00:00.000,Fell,Andover,Valid,3200,44.616670,-70.750000,Point
2296,1969-01-01T00:00:00.000,Fell,Andreevka,Valid,600,48.700000,37.500000,Point
2298,1939-01-01T00:00:00.000,Fell,Andura,Valid,17900,20.883330,76.866670,Point
50693,,Found,Northwest Africa 5815,Valid,256.8,0.000000,0.000000,Point
2301,1822-01-01T00:00:00.000,Fell,Angers,Valid,,47.466670,-0.550000,Point
2302,1869-01-01T00:00:00.000,Fell,Angra dos Reis (stone),Valid,1500,-22.966670,-44.316670,Point
2304,1942-01-01T00:00:00.000,Fell,Ankober,Valid,6500,9.533330,39.716670,Point
2305,1971-01-01T00:00:00.000,Fell,Anlong,Valid,2500,25.150000,105.183330,Point
2313,1984-01-01T00:00:00.000,Fell,Aomori,Valid,320,40.810560,140.785560,Point
2318,1914-01-01T00:00:00.000,Fell,Appley Bridge,Valid,15000,53.583330,-2.716670,Point
2320,1803-01-01T00:00:00.000,Fell,Apt,Valid,3200,43.866670,5.383330,Point
2325,1954-01-01T00:00:00.000,Fell,Arbol Solo,Valid,810,-33.000000,-66.000000,Point
2329,1932-01-01T00:00:00.000,Fell,Archie,Valid,5070,38.500000,-94.300000,Point
2340,1950-01-01T00:00:00.000,Fell,Arroyo Aguiar,Valid,7450,-31.416670,-60.666670,Point
2345,1805-01-01T00:00:00.000,Fell,Asco,Valid,41,42.450000,9.033330,Point
48954,2009-01-01T00:00:00.000,Fell,Ash Creek,Valid,9500,31.805000,-97.010000,Point
2346,1923-01-01T00:00:00.000,Fell,Ashdon,Valid,1300,52.050000,0.300000,Point
2353,1886-01-01T00:00:00.000,Fell,Assisi,Valid,2000,43.033330,12.550000,Point
4883,1920-01-01T00:00:00.000,Fell,Atarra,Valid,1280,25.254170,80.625000,Point
4884,1896-01-01T00:00:00.000,Fell,Atemajac,Valid,94.2,20.066670,-103.666670,Point
4885,1933-01-01T00:00:00.000,Fell,Athens,Valid,265,34.750000,-87.000000,Point
4888,1945-01-01T00:00:00.000,Fell,Atoka,Valid,1384.2,34.316670,-96.150000,Point
4893,1836-01-01T00:00:00.000,Fell,Aubres,Valid,800,44.383330,5.166670,Point
4899,1865-01-01T00:00:00.000,Fell,Aumale,Valid,50000,36.166670,3.666670,Point
4900,1842-01-01T00:00:00.000,Fell,Aumieres,Valid,2000,44.333330,3.233330,Point
4903,1858-01-01T00:00:00.000,Fell,Ausson,Valid,50000,43.083330,0.583330,Point
4905,1952-01-01T00:00:00.000,Fell,Avanhandava,Valid,9330,-21.460280,-49.950830,Point
4906,1908-01-01T00:00:00.000,Fell,Avce,Valid,1230,46.000000,13.500000,Point
4907,1855-01-01T00:00:00.000,Fell,Avilez,Valid,146,25.000000,-103.500000,Point
4910,1968-01-01T00:00:00.000,Fell,Awere,Valid,134,2.716670,32.833330,Point
4913,1938-01-01T00:00:00.000,Fell,Aztec,Valid,2830,36.800000,-108.000000,Point
4917,1814-01-01T00:00:00.000,Fell,Bachmut,Valid,18000,48.600000,38.000000,Point
4922,1934-01-01T00:00:00.000,Fell,Bahjoi,Valid,10322,28.483330,78.500000,Point
4925,1929-01-01T00:00:00.000,Fell,Bald Mountain,Valid,3700,35.966670,-82.483330,Point
4926,1922-01-01T00:00:00.000,Fell,Baldwyn,Valid,345,34.500000,-88.666670,Point
4928,1907-01-01T00:00:00.000,Fell,Bali,Valid,1000,5.383330,16.383330,Point
4934,1993-01-01T00:00:00.000,Fell,Ban Rong Du,Valid,16700,16.666670,101.183330,Point
4935,1871-01-01T00:00:00.000,Fell,Bandong,Valid,11500,-6.916670,107.600000,Point
4936,1892-01-01T00:00:00.000,Fell,Bansur,Valid,15000,27.700000,76.333330,Point
4937,1913-01-01T00:00:00.000,Fell,Banswal,Valid,14,30.400000,78.200000,Point
4938,1933-01-01T00:00:00.000,Fell,Banten,Valid,629,-6.333330,106.000000,Point
4942,1790-01-01T00:00:00.000,Fell,Barbotan,Valid,6400,43.950000,-0.050000,Point
4944,1704-01-01T00:00:00.000,Fell,Barcelona (stone),Valid,,41.366670,2.166670,Point
4946,1842-01-01T00:00:00.000,Fell,Barea,Valid,3200,42.383330,-2.500000,Point
4947,1904-01-01T00:00:00.000,Fell,Barnaul,Valid,23.2,52.733330,84.083330,Point
4948,1886-01-01T00:00:00.000,Fell,Barntrup,Valid,17,52.000000,9.100000,Point
4949,1910-01-01T00:00:00.000,Fell,Baroti,Valid,4500,31.616670,76.800000,Point
4954,1965-01-01T00:00:00.000,Fell,Barwell,Valid,44000,52.565280,-1.339720,Point
44876,2006-01-01T00:00:00.000,Fell,Bassikounou,Valid,29560,15.783330,-5.900000,Point
4957,1994-01-01T00:00:00.000,Fell,Baszkówka,Valid,15500,52.033330,20.935830,Point
4974,1892-01-01T00:00:00.000,Fell,Bath,Valid,21000,45.416670,-98.316670,Point
4975,1902-01-01T00:00:00.000,Fell,Bath Furnace,Valid,86000,38.250000,-83.750000,Point
56133,2012-01-01T00:00:00.000,Fell,Battle Mountain,Valid,2900,40.668130,-117.189130,Point
4976,1989-01-01T00:00:00.000,Fell,Bawku,Valid,1557,11.083330,-0.183330,Point
4977,1916-01-01T00:00:00.000,Fell,Baxter,Valid,611,36.750000,-93.500000,Point
4984,1929-01-01T00:00:00.000,Fell,Beardsley,Valid,16000,39.800000,-101.200000,Point
4986,1893-01-01T00:00:00.000,Fell,Beaver Creek,Valid,14000,51.166670,-117.333330,Point
4993,1949-01-01T00:00:00.000,Fell,Beddgelert,Valid,794,53.016670,-4.100000,Point
5005,1961-01-01T00:00:00.000,Fell,Bells,Valid,375,33.600000,-96.466670,Point
5009,1937-01-01T00:00:00.000,Fell,Belville,Valid,,-32.333330,-64.866670,Point
5011,1798-01-01T00:00:00.000,Fell,Benares (a),Valid,3700,25.366670,82.916670,Point
30443,2004-01-01T00:00:00.000,Fell,Benguerir,Valid,25000,32.250000,-8.150000,Point
5018,2001-01-01T00:00:00.000,Fell,Beni M'hira,Valid,19000,32.866670,10.800000,Point
5021,1938-01-01T00:00:00.000,Fell,Benld,Valid,1770.5,39.083330,-89.150000,Point
5023,1943-01-01T00:00:00.000,Fell,Benoni,Valid,3880,-26.166670,28.416670,Point
5024,2002-01-01T00:00:00.000,Fell,Bensour,Valid,45000,30.000000,-7.000000,Point
5026,1949-01-01T00:00:00.000,Fell,Benton,Valid,2840,45.950000,-67.550000,Point
48975,2008-01-01T00:00:00.000,Fell,Berduc,Valid,270,-31.910000,-58.328330,Point
5028,1924-01-01T00:00:00.000,Fell,Béréba,Valid,18000,11.650000,-3.650000,Point
5029,1811-01-01T00:00:00.000,Fell,Berlanguillas,Valid,1440,41.683330,-3.800000,Point
47355,2004-01-01T00:00:00.000,Fell,Berthoud,Valid,960,40.305830,-105.023250,Point
5032,1859-01-01T00:00:00.000,Fell,Bethlehem,Valid,13.9,42.533330,-73.833330,Point
5034,1859-01-01T00:00:00.000,Fell,Beuste,Valid,2000,43.216670,-0.233330,Point
5035,1921-01-01T00:00:00.000,Fell,Beyrout,Valid,1100,33.883330,35.500000,Point
5037,1877-01-01T00:00:00.000,Fell,Bhagur,Valid,18,20.883330,74.833330,Point
36591,2002-01-01T00:00:00.000,Fell,Bhawad,Valid,678,26.508330,73.115280,Point
5039,1893-01-01T00:00:00.000,Fell,Bherai,Valid,100,20.833330,71.466670,Point
5040,1940-01-01T00:00:00.000,Fell,Bhola,Valid,1047,22.683330,90.650000,Point
5041,1905-01-01T00:00:00.000,Fell,Bholghati,Valid,2500,22.083330,86.900000,Point
5042,1827-01-01T00:00:00.000,Fell,Bialystok,Valid,4000,53.100000,23.200000,Point
5043,1887-01-01T00:00:00.000,Fell,Bielokrynitschie,Valid,1900,50.133330,27.166670,Point
5045,1999-01-01T00:00:00.000,Fell,Bilanga,Valid,25000,12.450000,-0.083330,Point
5051,1984-01-01T00:00:00.000,Fell,Binningup,Valid,488.1,-33.156390,115.676390,Point
5056,1923-01-01T00:00:00.000,Fell,Birni N'konni,Valid,560,13.766670,5.300000,Point
5059,1843-01-01T00:00:00.000,Fell,Bishopville,Valid,6000,34.166670,-80.283330,Point
5060,1895-01-01T00:00:00.000,Fell,Bishunpur,Valid,1039,25.383330,82.600000,Point
5063,1796-01-01T00:00:00.000,Fell,Bjelaja Zerkov,Valid,1850,49.783330,30.166670,Point
5064,1899-01-01T00:00:00.000,Fell,Bjurböle,Valid,330000,60.400000,25.800000,Point
5065,1941-01-01T00:00:00.000,Fell,Black Moshannan Park,Valid,705,40.916670,-78.083330,Point
5068,1906-01-01T00:00:00.000,Fell,Blackwell,Valid,2381,36.833330,-97.333330,Point
5071,1909-01-01T00:00:00.000,Fell,Blanket,Valid,5100,31.833330,-98.833330,Point
5072,1833-01-01T00:00:00.000,Fell,Blansko,Valid,470,49.366670,16.633330,Point
5076,1938-01-01T00:00:00.000,Fell,Bloomington,Valid,67.8,40.480000,-89.004170,Point
5090,1977-01-01T00:00:00.000,Fell,Bo Xian,Valid,7500,33.833330,115.833330,Point
5093,1804-01-01T00:00:00.000,Fell,Bocas,Valid,56,23.000000,-102.000000,Point
5097,1962-01-01T00:00:00.000,Fell,Bogou,Valid,8800,12.500000,0.700000,Point
5098,1916-01-01T00:00:00.000,Fell,Boguslavka,Valid,256000,44.550000,131.633330,Point
5110,1808-01-01T00:00:00.000,Fell,Borgo San Donino,Valid,1676,44.866670,10.050000,Point
5111,1894-01-01T00:00:00.000,Fell,Bori,Valid,8600,21.950000,78.033330,Point
5112,1930-01-01T00:00:00.000,Fell,Boriskino,Valid,1342,54.233330,52.483330,Point
5113,1852-01-01T00:00:00.000,Fell,Borkut,Valid,7000,48.150000,24.283330,Point
5114,1812-01-01T00:00:00.000,Fell,Borodino,Valid,500,55.466670,35.866670,Point
5117,1823-01-01T00:00:00.000,Fell,Botschetschki,Valid,614,51.333330,33.883330,Point
57168,2003-01-01T00:00:00.000,Fell,Boumdeid (2003),Valid,190,17.710670,-11.371500,Point
57167,2011-01-01T00:00:00.000,Fell,Boumdeid (2011),Valid,3599,17.174930,-11.341330,Point
5121,1969-01-01T00:00:00.000,Fell,Bovedy,Valid,5460,54.566670,-6.333330,Point
5128,1886-01-01T00:00:00.000,Fell,Bradford Woods,Valid,762,40.500000,-80.083330,Point
5133,1847-01-01T00:00:00.000,Fell,Braunau,Valid,39000,50.600000,16.300000,Point
5134,1956-01-01T00:00:00.000,Fell,Breitscheid,Valid,1500,50.666940,8.183610,Point
5135,1855-01-01T00:00:00.000,Fell,Bremervörde,Valid,7250,53.400000,9.100000,Point
5140,1933-01-01T00:00:00.000,Fell,Brient,Valid,219,52.133330,59.316670,Point
5156,1960-01-01T00:00:00.000,Fell,Bruderheim,Valid,303000,53.900000,-112.883330,Point
30448,2001-01-01T00:00:00.000,Fell,Bukhara,Valid,5300,39.779780,64.600350,Point
5163,1964-01-01T00:00:00.000,Fell,Bulls Run,Valid,2250,,,
48653,2007-01-01T00:00:00.000,Fell,Bunburra Rockhole,Valid,324,-31.350000,129.190000,Point
5165,1942-01-01T00:00:00.000,Fell,Bununu,Valid,357,10.016670,9.583330,Point
5169,1919-01-01T00:00:00.000,Fell,Bur-Gheluai,Valid,120000,5.000000,48.000000,Point
5175,1990-01-01T00:00:00.000,Fell,Burnwell,Valid,1504,37.621940,-82.237220,Point
5177,1946-01-01T00:00:00.000,Fell,Bursa,Valid,25000,40.200000,29.233330,Point
5178,1863-01-01T00:00:00.000,Fell,Buschhof,Valid,5000,46.450000,25.783330,Point
5181,1852-01-01T00:00:00.000,Fell,Bustee,Valid,1500,26.783330,82.833330,Point
5183,1861-01-01T00:00:00.000,Fell,Butsura,Valid,29000,27.083330,84.083330,Point
48654,2008-01-01T00:00:00.000,Fell,Buzzard Coulee,Valid,41000,52.996000,-109.848170,Point
5185,1870-01-01T00:00:00.000,Fell,Cabezo de Mayo,Valid,25000,37.983330,-1.166670,Point
5186,1886-01-01T00:00:00.000,Fell,Cabin Creek,Valid,48500,35.500000,-93.500000,Point
5187,1919-01-01T00:00:00.000,Fell,Cacak,Valid,212,43.838890,20.333330,Point
45976,2007-01-01T00:00:00.000,Fell,Cali,Valid,478,3.405000,-76.510000,Point
5200,1916-01-01T00:00:00.000,Fell,Calivo,Valid,2400,11.750000,122.333330,Point
5249,1991-01-01T00:00:00.000,Fell,Campos Sales,Valid,23680,-7.033330,-40.166670,Point
5250,1964-01-01T00:00:00.000,Fell,Çanakkale,Valid,4000,39.800000,26.600000,Point
5251,1861-01-01T00:00:00.000,Fell,Cañellas,Valid,945,41.250000,1.666670,Point
5252,1866-01-01T00:00:00.000,Fell,Cangas de Onis,Valid,34000,43.383330,-5.150000,Point
5253,1973-01-01T00:00:00.000,Fell,Canon City,Valid,1400,38.470280,-105.241390,Point
5260,1846-01-01T00:00:00.000,Fell,Cape Girardeau,Valid,2300,37.266670,-89.583330,Point
5264,1934-01-01T00:00:00.000,Fell,Capilla del Monte,Valid,750,-30.883330,-64.550000,Point
45817,2007-01-01T00:00:00.000,Fell,Carancas,Valid,342,-16.664440,-69.043890,Point
5265,1902-01-01T00:00:00.000,Fell,Caratash,Valid,8,38.500000,27.000000,Point
5291,1874-01-01T00:00:00.000,Fell,Castalia,Valid,7300,36.083330,-78.066670,Point
5292,1791-01-01T00:00:00.000,Fell,Castel Berardenga,Valid,,43.350000,11.500000,Point
5293,1848-01-01T00:00:00.000,Fell,Castine,Valid,94,44.383330,-68.750000,Point
5295,1583-01-01T00:00:00.000,Fell,Castrovillari,Valid,15000,39.800000,16.200000,Point
5296,1810-01-01T00:00:00.000,Fell,Caswell County,Valid,1360,36.500000,-79.250000,Point
5306,1988-01-01T00:00:00.000,Fell,Ceniceros,Valid,1025,26.466670,-105.233330,Point
5307,1956-01-01T00:00:00.000,Fell,Centerville,Valid,45.6,43.200000,-96.916670,Point
5308,1840-01-01T00:00:00.000,Fell,Cereseto,Valid,6460,45.083330,8.300000,Point
5313,1998-01-01T00:00:00.000,Fell,Chadong,Valid,3700,28.533330,109.316670,Point
5314,1814-01-01T00:00:00.000,Fell,Chail,Valid,0.5,25.366670,81.666670,Point
5315,1907-01-01T00:00:00.000,Fell,Chainpur,Valid,8200,25.850000,83.483330,Point
5316,1933-01-01T00:00:00.000,Fell,Chajari,Valid,18300,-30.783330,-58.050000,Point
5320,1838-01-01T00:00:00.000,Fell,Chandakapur,Valid,8800,20.266670,76.016670,Point
5321,1885-01-01T00:00:00.000,Fell,Chandpur,Valid,1100,27.283330,79.050000,Point
5322,1977-01-01T00:00:00.000,Fell,Changde,Valid,1810,29.083330,111.750000,Point
5325,1812-01-01T00:00:00.000,Fell,Chantonnay,Valid,31500,46.683330,1.050000,Point
5328,1835-01-01T00:00:00.000,Fell,Charlotte,Valid,4300,36.166670,-87.333330,Point
5329,1810-01-01T00:00:00.000,Fell,Charsonville,Valid,27000,47.933330,1.566670,Point
5330,1834-01-01T00:00:00.000,Fell,Charwallas,Valid,12000,29.483330,75.500000,Point
5331,1815-01-01T00:00:00.000,Fell,Chassigny,Valid,4000,47.716670,5.366670,Point
5332,1841-01-01T00:00:00.000,Fell,Château-Renard,Valid,30000,47.933330,2.916670,Point
5334,1925-01-01T00:00:00.000,Fell,Chaves,Valid,2945,41.933330,-7.466670,Point
5338,1988-01-01T00:00:00.000,Fell,Chela,Valid,2936,-3.666670,32.500000,Point
57165,2013-01-01T00:00:00.000,Fell,Chelyabinsk,Valid,100000,54.816670,61.116670,Point
47347,2007-01-01T00:00:00.000,Fell,Chergach ,Valid,100000,23.696390,-5.014720,Point
5339,1964-01-01T00:00:00.000,Fell,Chernyi Bor,Valid,6000,53.700000,30.100000,Point
5340,1933-01-01T00:00:00.000,Fell,Cherokee Springs,Valid,8400,35.033330,-81.883330,Point
5341,1901-01-01T00:00:00.000,Fell,Chervettaz,Valid,705,46.550000,6.816670,Point
5342,1939-01-01T00:00:00.000,Fell,Chervony Kut,Valid,1700,50.833330,34.000000,Point
5344,1880-01-01T00:00:00.000,Fell,Chetrinahatti,Valid,72,14.500000,76.500000,Point
5345,1981-01-01T00:00:00.000,Fell,Chiang Khan,Valid,367,17.900000,101.633330,Point
5349,1938-01-01T00:00:00.000,Fell,Chicora,Valid,303,40.933330,-79.733330,Point
5355,1988-01-01T00:00:00.000,Fell,Chisenga,Valid,3920,-10.059440,33.395000,Point
5356,1966-01-01T00:00:00.000,Fell,Chitado,Valid,,-17.350000,13.966670,Point
5357,1978-01-01T00:00:00.000,Fell,Chitenay,Valid,4000,47.470830,0.976670,Point
5364,1979-01-01T00:00:00.000,Fell,Cilimus,Valid,1600,-6.950000,108.100000,Point
5374,1984-01-01T00:00:00.000,Fell,Claxton,Valid,1455,32.102500,-81.872780,Point
5383,1822-01-01T00:00:00.000,Fell,Clohars,Valid,48.6,,,
5395,1917-01-01T00:00:00.000,Fell,Colby (Wisconsin),Valid,104000,44.900000,-90.283330,Point
5397,1838-01-01T00:00:00.000,Fell,Cold Bokkeveld,Valid,5200,-33.133330,19.383330,Point
5401,1994-01-01T00:00:00.000,Fell,Coleman,Valid,469,43.761110,-84.507780,Point
5403,1890-01-01T00:00:00.000,Fell,Collescipoli,Valid,5000,42.533330,12.616670,Point
5418,1965-01-01T00:00:00.000,Fell,Conquista,Valid,20350,-19.850000,-47.550000,Point
5451,1844-01-01T00:00:00.000,Fell,Cosina,Valid,1200,21.166670,-100.866670,Point
5465,1917-01-01T00:00:00.000,Fell,Cranganore,Valid,1460,10.200000,76.266670,Point
5470,1936-01-01T00:00:00.000,Fell,Crescent,Valid,78.400000000000006,35.950000,-97.583330,Point
5474,1877-01-01T00:00:00.000,Fell,Cronstad,Valid,3650,-27.700000,27.300000,Point
5476,1892-01-01T00:00:00.000,Fell,Cross Roads,Valid,167,35.633330,-78.133330,Point
5477,1902-01-01T00:00:00.000,Fell,Crumlin,Valid,4255,54.616670,-6.216670,Point
5496,1919-01-01T00:00:00.000,Fell,Cumberland Falls,Valid,17000,36.833330,-84.350000,Point
5500,1877-01-01T00:00:00.000,Fell,Cynthiana,Valid,6000,38.400000,-84.250000,Point
5504,1981-01-01T00:00:00.000,Fell,Dahmani,Valid,18000,35.616670,8.833330,Point
5511,1878-01-01T00:00:00.000,Fell,Dandapur,Valid,5650,26.916670,83.966670,Point
5513,1868-01-01T00:00:00.000,Fell,Daniel's Kuil,Valid,1064,-28.200000,24.566670,Point
5514,1868-01-01T00:00:00.000,Fell,Danville,Valid,2000,34.400000,-87.066670,Point
6603,1804-01-01T00:00:00.000,Fell,Darmstadt,Valid,100,49.866670,8.650000,Point
6604,1998-01-01T00:00:00.000,Fell,Dashoguz,Valid,7000,41.984440,59.685000,Point
51559,2008-01-01T00:00:00.000,Fell,Daule,Valid,6580,-1.870890,-79.957560,Point
6621,1887-01-01T00:00:00.000,Fell,De Cewsville,Valid,340,43.000000,-80.000000,Point
6634,1829-01-01T00:00:00.000,Fell,Deal,Valid,28,40.250000,-74.000000,Point
6642,1897-01-01T00:00:00.000,Fell,Delhi,Valid,0.8,28.566670,77.250000,Point
6649,1911-01-01T00:00:00.000,Fell,Demina,Valid,16400,51.466670,84.766670,Point
6660,1967-01-01T00:00:00.000,Fell,Denver,Valid,230,39.782500,-104.930560,Point
6664,2001-01-01T00:00:00.000,Fell,Dergaon,Valid,12500,26.683330,93.866670,Point
6693,1962-01-01T00:00:00.000,Fell,Desuri,Valid,25400,25.733330,73.616670,Point
6694,2001-01-01T00:00:00.000,Fell,Devgaon,Valid,12000,19.000000,81.000000,Point
6696,1994-01-01T00:00:00.000,Fell,Devri-Khera,Valid,1140,24.225000,76.525000,Point
6698,1976-01-01T00:00:00.000,Fell,Dhajala,Valid,45000,22.377780,71.427220,Point
6699,1848-01-01T00:00:00.000,Fell,Dharwar,Valid,1800,14.883330,75.600000,Point
7640,1860-01-01T00:00:00.000,Fell,Dhurmsala,Valid,32000,32.233330,76.466670,Point
47350,2007-01-01T00:00:00.000,Fell,Didim,Valid,3396,37.351720,27.329970,Point
7642,1906-01-01T00:00:00.000,Fell,Diep River,Valid,1000,-33.750000,18.566670,Point
7649,1957-01-01T00:00:00.000,Fell,Distrito Quebracho,Valid,400,-31.883330,-60.466670,Point
7652,1884-01-01T00:00:00.000,Fell,Djati-Pengilon,Valid,166000,-7.500000,111.500000,Point
7656,1961-01-01T00:00:00.000,Fell,Djermaia,Valid,3950,12.733330,15.050000,Point
7657,1999-01-01T00:00:00.000,Fell,Djoumine,Valid,10000,36.950000,9.550000,Point
7658,1903-01-01T00:00:00.000,Fell,Dokachi,Valid,3840,23.500000,90.333330,Point
7659,1864-01-01T00:00:00.000,Fell,Dolgovoli,Valid,1600,50.750000,25.300000,Point
7661,1907-01-01T00:00:00.000,Fell,Domanitch,Valid,438,40.000000,29.000000,Point
7706,1995-01-01T00:00:00.000,Fell,Dong Ujimqin Qi,Valid,128800,45.500000,119.033330,Point
7707,1899-01-01T00:00:00.000,Fell,Donga Kohrod,Valid,230,21.866670,82.450000,Point
7708,1970-01-01T00:00:00.000,Fell,Dongtai,Valid,5500,32.916670,120.783330,Point
7718,1805-01-01T00:00:00.000,Fell,Doroninsk,Valid,3891,51.200000,112.300000,Point
7722,1962-01-01T00:00:00.000,Fell,Dosso,Valid,1250,13.050000,3.166670,Point
7723,1932-01-01T00:00:00.000,Fell,Douar Mghila,Valid,1161,32.333330,-6.300000,Point
7725,1976-01-01T00:00:00.000,Fell,Dowa,Valid,642,-13.666670,33.916670,Point
7728,1827-01-01T00:00:00.000,Fell,Drake Creek,Valid,5000,36.400000,-86.500000,Point
7731,1939-01-01T00:00:00.000,Fell,Dresden (Ontario),Valid,47700,42.520000,-82.260000,Point
7736,1951-01-01T00:00:00.000,Fell,Dubrovnik,Valid,1900,42.458330,18.441670,Point
7743,1999-01-01T00:00:00.000,Fell,Dunbogan,Valid,30,-31.666670,152.833330,Point
7745,1865-01-01T00:00:00.000,Fell,Dundrum,Valid,2270,52.550000,-8.033330,Point
7749,1976-01-01T00:00:00.000,Fell,Dunhua,Valid,,43.333330,128.250000,Point
7750,1815-01-01T00:00:00.000,Fell,Durala,Valid,13200,30.300000,76.633330,Point
7752,1853-01-01T00:00:00.000,Fell,Duruma,Valid,577,-4.000000,39.500000,Point
7754,1943-01-01T00:00:00.000,Fell,Duwun,Valid,2117,33.433330,127.266670,Point
7755,1970-01-01T00:00:00.000,Fell,Dwaleni,Valid,3230,-27.200000,31.316670,Point
7757,1872-01-01T00:00:00.000,Fell,Dyalpur,Valid,300,26.250000,82.000000,Point
7758,1933-01-01T00:00:00.000,Fell,Dyarrl Island,Valid,188,-3.000000,151.000000,Point
7760,1947-01-01T00:00:00.000,Fell,Eagle,Valid,10000,40.781670,-96.471670,Point
7774,1961-01-01T00:00:00.000,Fell,Ehole,Valid,2400,-17.300000,15.833330,Point
7775,1785-01-01T00:00:00.000,Fell,Eichstädt,Valid,3000,48.900000,11.216670,Point
7776,1939-01-01T00:00:00.000,Fell,Ekeby,Valid,3336,56.033330,13.000000,Point
7777,1916-01-01T00:00:00.000,Fell,Ekh Khera,Valid,840,28.266670,78.783330,Point
7807,1989-01-01T00:00:00.000,Fell,El Idrissia,Valid,10000,34.416670,3.250000,Point
45977,1977-01-01T00:00:00.000,Fell,El Paso de Aguila,Valid,17226,25.370000,-97.370000,Point
7819,1993-01-01T00:00:00.000,Fell,El Tigre,Valid,5000,19.967220,-103.051670,Point
7822,1998-01-01T00:00:00.000,Fell,Elbert,Valid,680.5,39.246670,-104.588170,Point
7823,1400-01-01T00:00:00.000,Fell,Elbogen,Valid,107000,50.183330,12.733330,Point
7824,1951-01-01T00:00:00.000,Fell,Elenovka,Valid,54640,47.833330,37.666670,Point
10019,1925-01-01T00:00:00.000,Fell,Ellemeet,Valid,1470,51.750000,4.000000,Point
10033,1900-01-01T00:00:00.000,Fell,Emmaville,Valid,127,-29.466670,151.616670,Point
10038,1974-01-01T00:00:00.000,Fell,Enshi,Valid,8000,30.300000,109.500000,Point
10039,1492-01-01T00:00:00.000,Fell,Ensisheim,Valid,127000,47.866670,7.350000,Point
10041,1822-01-01T00:00:00.000,Fell,Épinal,Valid,277,48.183330,6.466670,Point
10042,1940-01-01T00:00:00.000,Fell,Erakot,Valid,113,19.033330,81.891670,Point
10043,1911-01-01T00:00:00.000,Fell,Erevan,Valid,107.2,40.300000,44.500000,Point
10044,1889-01-01T00:00:00.000,Fell,Ergheo,Valid,20000,1.166670,44.166670,Point
10049,1812-01-01T00:00:00.000,Fell,Erxleben,Valid,2250,52.216670,11.250000,Point
10051,1837-01-01T00:00:00.000,Fell,Esnandes,Valid,1500,46.250000,-1.100000,Point
10055,1957-01-01T00:00:00.000,Fell,Essebi,Valid,500,2.883330,30.833330,Point
10059,1879-01-01T00:00:00.000,Fell,Estherville,Valid,320000,43.416670,-94.833330,Point
10074,1890-01-01T00:00:00.000,Fell,Farmington,Valid,89400,39.750000,-97.033330,Point
10075,1934-01-01T00:00:00.000,Fell,Farmville,Valid,56000,35.550000,-77.533330,Point
10078,1844-01-01T00:00:00.000,Fell,Favars,Valid,1500,44.383330,2.816670,Point
10079,1934-01-01T00:00:00.000,Fell,Fayetteville,Valid,2360,36.050000,-94.166670,Point
10080,1875-01-01T00:00:00.000,Fell,Feid Chair,Valid,380,36.883330,8.450000,Point
10081,1900-01-01T00:00:00.000,Fell,Felix,Valid,3200,32.533330,-87.166670,Point
10086,1924-01-01T00:00:00.000,Fell,Fenghsien-Ku,Valid,82,34.600000,116.750000,Point
10088,1889-01-01T00:00:00.000,Fell,Ferguson,Valid,220,36.100000,-81.416670,Point
10091,1996-01-01T00:00:00.000,Fell,Fermo,Valid,10200,43.181110,13.753330,Point
10107,1894-01-01T00:00:00.000,Fell,Fisher,Valid,17600,47.816670,-96.850000,Point
10111,1922-01-01T00:00:00.000,Fell,Florence,Valid,3640,30.833330,-97.766670,Point
10119,1890-01-01T00:00:00.000,Fell,Forest City,Valid,152000,43.250000,-93.666670,Point
10120,1942-01-01T00:00:00.000,Fell,Forest Vale,Valid,26000,-33.350000,146.858330,Point
10123,1924-01-01T00:00:00.000,Fell,Forksville,Valid,6067,36.783330,-78.083330,Point
10163,1900-01-01T00:00:00.000,Fell,Forsbach,Valid,240,50.950000,7.316670,Point
10164,1829-01-01T00:00:00.000,Fell,Forsyth,Valid,16300,33.016670,-83.966670,Point
10166,1944-01-01T00:00:00.000,Fell,Fort Flatters,Valid,,28.250000,7.000000,Point
10177,1868-01-01T00:00:00.000,Fell,Frankfort (stone),Valid,650,34.483330,-87.833330,Point
52412,1945-01-01T00:00:00.000,Fell,Fuhe,Valid,23000,31.475560,113.566940,Point
10836,1882-01-01T00:00:00.000,Fell,Fukutomi,Valid,11620,33.183330,130.200000,Point
10838,1654-01-01T00:00:00.000,Fell,Fünen,Valid,,55.333330,10.333330,Point
10839,1822-01-01T00:00:00.000,Fell,Futtehpur,Valid,4000,25.950000,80.816670,Point
10840,1977-01-01T00:00:00.000,Fell,Fuyang,Valid,2500,32.900000,115.900000,Point
10846,1826-01-01T00:00:00.000,Fell,Galapian,Valid,132.69999999999999,44.300000,0.400000,Point
10848,1952-01-01T00:00:00.000,Fell,Galim (a),Valid,36.1,7.050000,12.433330,Point
10849,1952-01-01T00:00:00.000,Fell,Galim (b),Valid,28,7.050000,12.433330,Point
10850,1995-01-01T00:00:00.000,Fell,Galkiv,Valid,5000,51.683330,30.783330,Point
10851,1897-01-01T00:00:00.000,Fell,Gambat,Valid,6400,27.350000,68.533330,Point
10854,1960-01-01T00:00:00.000,Fell,Gao-Guenie,Valid,,11.650000,-2.183330,Point
10860,1917-01-01T00:00:00.000,Fell,Garhi Yasin,Valid,380,27.883330,68.533330,Point
10861,1950-01-01T00:00:00.000,Fell,Garland,Valid,102,41.683330,-112.133330,Point
44882,1984-01-01T00:00:00.000,Fell,Gashua,Valid,4162,12.850000,11.033330,Point
10866,2000-01-01T00:00:00.000,Fell,Gasseltepaoua,Valid,,14.150830,-2.041670,Point
10870,1950-01-01T00:00:00.000,Fell,Geidam,Valid,725,12.916670,11.916670,Point
10914,1909-01-01T00:00:00.000,Fell,Gifu,Valid,14290,35.533330,136.883330,Point
10917,1853-01-01T00:00:00.000,Fell,Girgenti,Valid,18000,37.316670,13.566670,Point
10919,1947-01-01T00:00:00.000,Fell,Git-Git,Valid,480,9.600000,9.916670,Point
10923,1990-01-01T00:00:00.000,Fell,Glanerbrug,Valid,670,52.200000,6.866670,Point
10924,1939-01-01T00:00:00.000,Fell,Glanggang,Valid,1303,-7.250000,107.700000,Point
10926,1918-01-01T00:00:00.000,Fell,Glasatovo,Valid,152000,57.350000,37.616670,Point
10930,1991-01-01T00:00:00.000,Fell,Glatton,Valid,767,52.459720,-0.300000,Point
10936,1879-01-01T00:00:00.000,Fell,Gnadenfrei,Valid,1750,50.666670,16.766670,Point
10948,1865-01-01T00:00:00.000,Fell,Gopalpur,Valid,1600,24.233330,89.050000,Point
10949,1974-01-01T00:00:00.000,Fell,Gorlovka,Valid,3618,48.283330,38.083330,Point
10956,1964-01-01T00:00:00.000,Fell,Granes,Valid,9000,42.900000,2.250000,Point
11196,1976-01-01T00:00:00.000,Fell,Grefsheim,Valid,45.5,60.666670,11.000000,Point
50911,2009-01-01T00:00:00.000,Fell,Grimsby,Valid,215,43.200000,-79.616670,Point
11206,1861-01-01T00:00:00.000,Fell,Grosnaja,Valid,3500,43.666670,45.383330,Point
11207,1837-01-01T00:00:00.000,Fell,Gross-Divina,Valid,10500,49.266670,18.716670,Point
11208,1881-01-01T00:00:00.000,Fell,Grossliebenthal,Valid,8000,46.350000,30.583330,Point
11426,1841-01-01T00:00:00.000,Fell,Grüneberg,Valid,1000,51.933330,15.500000,Point
11429,1910-01-01T00:00:00.000,Fell,Grzempach,Valid,690,52.866670,16.633330,Point
11432,1932-01-01T00:00:00.000,Fell,Gualeguaychú,Valid,22000,-33.000000,-58.616670,Point
11435,1996-01-01T00:00:00.000,Fell,Guangmingshan,Valid,2910,39.804170,122.763890,Point
11436,1983-01-01T00:00:00.000,Fell,Guangnan,Valid,,24.100000,105.000000,Point
11437,1980-01-01T00:00:00.000,Fell,Guangrao,Valid,1900,37.100000,118.400000,Point
11439,1892-01-01T00:00:00.000,Fell,Guareña,Valid,39000,38.733330,-6.016670,Point
11440,1891-01-01T00:00:00.000,Fell,Guêa,Valid,1915,43.766670,20.233330,Point
11442,1972-01-01T00:00:00.000,Fell,Guibga,Valid,288,13.500000,-0.683330,Point
11443,1949-01-01T00:00:00.000,Fell,Guidder,Valid,968,9.916670,13.983330,Point
11448,1982-01-01T00:00:00.000,Fell,Gujargaon,Valid,2449,22.983330,76.050000,Point
11449,1984-01-01T00:00:00.000,Fell,Gujba,Valid,100000,11.491670,11.658330,Point
11450,1904-01-01T00:00:00.000,Fell,Gumoschnik,Valid,5700,42.900000,24.700000,Point
11464,1814-01-01T00:00:00.000,Fell,Gurram Konda,Valid,28,13.783330,78.566670,Point
11465,1981-01-01T00:00:00.000,Fell,Gursum,Valid,34650,9.366670,42.416670,Point
11466,1851-01-01T00:00:00.000,Fell,Gütersloh,Valid,1000,51.916670,8.383330,Point
11467,1930-01-01T00:00:00.000,Fell,Gyokukei,Valid,1320,35.000000,127.500000,Point
11468,1817-01-01T00:00:00.000,Fell,Hachi-oji,Valid,0.2,35.650000,139.333330,Point
11472,1934-01-01T00:00:00.000,Fell,Hainaut,Valid,9000,50.316670,3.733330,Point
11479,1944-01-01T00:00:00.000,Fell,Hallingeberg,Valid,1456,57.816670,16.233330,Point
11485,1959-01-01T00:00:00.000,Fell,Hamlet,Valid,3710,41.383330,-86.600000,Point
11824,1878-01-01T00:00:00.000,Fell,Haraiya,Valid,1000,26.800000,82.533330,Point
11829,1921-01-01T00:00:00.000,Fell,Haripura,Valid,315,28.383330,75.783330,Point
11830,1961-01-01T00:00:00.000,Fell,Harleton,Valid,8360,32.675000,-94.511670,Point
11842,1859-01-01T00:00:00.000,Fell,Harrison County,Valid,680,38.250000,-86.166670,Point
11848,1910-01-01T00:00:00.000,Fell,Hashima,Valid,1110.5999999999999,35.294500,136.700330,Point
11852,1890-01-01T00:00:00.000,Fell,Hassi-Jekna,Valid,1250,28.950000,0.816670,Point
11855,1628-01-01T00:00:00.000,Fell,Hatford,Valid,29000,51.650000,-1.516670,Point
11859,1971-01-01T00:00:00.000,Fell,Haverö,Valid,1544,60.245560,22.061940,Point
11869,1922-01-01T00:00:00.000,Fell,Hedeskoga,Valid,3500,55.466670,13.783330,Point
11870,1910-01-01T00:00:00.000,Fell,Hedjaz,Valid,6100,27.333330,35.666670,Point
11875,1857-01-01T00:00:00.000,Fell,Heredia,Valid,1000,10.000000,-84.100000,Point
11878,1869-01-01T00:00:00.000,Fell,Hessle,Valid,20000,59.850000,17.666670,Point
11883,1897-01-01T00:00:00.000,Fell,Higashi-koen,Valid,750,33.600000,130.433330,Point
11884,1804-01-01T00:00:00.000,Fell,High Possil,Valid,4500,55.900000,-4.233330,Point
11889,2003-01-01T00:00:00.000,Fell,Hiroshima,Valid,414,34.450000,132.383330,Point
44714,2003-01-01T00:00:00.000,Fell,Hoima,Valid,167.7,1.345000,31.472780,Point
11893,1954-01-01T00:00:00.000,Fell,Hökmark,Valid,305.5,64.433330,21.200000,Point
11894,1912-01-01T00:00:00.000,Fell,Holbrook,Valid,220000,34.900000,-110.183330,Point
11895,1923-01-01T00:00:00.000,Fell,Holetta,Valid,1415,9.066670,38.416670,Point
11901,1875-01-01T00:00:00.000,Fell,Homestead,Valid,230000,41.800000,-91.866670,Point
11904,1825-01-01T00:00:00.000,Fell,Honolulu,Valid,2420,21.300000,-157.866670,Point
11913,1956-01-01T00:00:00.000,Fell,Hotse,Valid,180,35.666670,115.500000,Point
11915,1963-01-01T00:00:00.000,Fell,Hoxie,Valid,266.10000000000002,39.350000,-100.450000,Point
11916,1751-01-01T00:00:00.000,Fell,Hraschina,Valid,49000,46.100000,16.333330,Point
54719,2010-01-01T00:00:00.000,Fell,Huaxi,Valid,1600,26.464690,106.632410,Point
11986,1877-01-01T00:00:00.000,Fell,Hungen,Valid,112,50.300000,8.916670,Point
11989,1901-01-01T00:00:00.000,Fell,Hvittis,Valid,14000,61.183330,22.683330,Point
11992,1870-01-01T00:00:00.000,Fell,Ibbenbüren,Valid,2000,52.283330,7.700000,Point
11993,1957-01-01T00:00:00.000,Fell,Ibitira,Valid,2500,-20.000000,-45.000000,Point
11994,1949-01-01T00:00:00.000,Fell,Ibrisim,Valid,,38.000000,35.000000,Point
11995,1936-01-01T00:00:00.000,Fell,Ichkala,Valid,3973,58.200000,82.933330,Point
12000,1956-01-01T00:00:00.000,Fell,Idutywa,Valid,3457,-32.100000,28.333330,Point
12003,1977-01-01T00:00:00.000,Fell,Iguaracu,Valid,1200,-23.200000,-51.833330,Point
12004,1975-01-01T00:00:00.000,Fell,Ijopega,Valid,7330,-6.033330,145.366670,Point
12027,1891-01-01T00:00:00.000,Fell,Indarch,Valid,27000,39.750000,46.666670,Point
12028,1917-01-01T00:00:00.000,Fell,Independence,Valid,880,39.083330,-94.400000,Point
12037,1963-01-01T00:00:00.000,Fell,Inner Mongolia,Valid,3000,41.000000,112.000000,Point
12039,1977-01-01T00:00:00.000,Fell,Innisfree,Valid,4576,53.415000,-111.337500,Point
12043,1972-01-01T00:00:00.000,Fell,Ipiranga,Valid,7000,-25.500000,-54.500000,Point
12049,1954-01-01T00:00:00.000,Fell,Ishinga,Valid,1300,-8.933330,33.800000,Point
12053,1928-01-01T00:00:00.000,Fell,Isthilart,Valid,3050,-31.183330,-57.950000,Point
12056,1879-01-01T00:00:00.000,Fell,Itapicuru-Mirim,Valid,2024,-3.400000,-44.333330,Point
12058,1990-01-01T00:00:00.000,Fell,Itqiy,Valid,4720,26.590830,-12.952170,Point
12063,1938-01-01T00:00:00.000,Fell,Ivuna,Valid,704.5,-8.416670,32.433330,Point
12065,1903-01-01T00:00:00.000,Fell,Jackalsfontein,Valid,48000,-32.500000,21.900000,Point
12067,1926-01-01T00:00:00.000,Fell,Jajh deh Kot Lalu,Valid,973,26.750000,68.416670,Point
12068,1990-01-01T00:00:00.000,Fell,Jalanash,Valid,700,,,
12069,1621-01-01T00:00:00.000,Fell,Jalandhar,Valid,1967,31.000000,75.000000,Point
12072,1866-01-01T00:00:00.000,Fell,Jamkheir,Valid,22,18.750000,75.333330,Point
12074,1979-01-01T00:00:00.000,Fell,Jartai,Valid,20500,39.700000,105.800000,Point
12078,1889-01-01T00:00:00.000,Fell,Jelica,Valid,34000,43.833330,20.441670,Point
12079,1901-01-01T00:00:00.000,Fell,Jemlapur,Valid,450,,,
51589,2009-01-01T00:00:00.000,Fell,Jesenice,Valid,3667,46.421370,14.052170,Point
12085,1873-01-01T00:00:00.000,Fell,Jhung,Valid,5900,31.300000,72.383330,Point
12086,1964-01-01T00:00:00.000,Fell,Jiange,Valid,222,31.916670,104.916670,Point
12087,1890-01-01T00:00:00.000,Fell,Jianshi,Valid,600000,30.808330,109.500000,Point
12171,1976-01-01T00:00:00.000,Fell,Jilin,Valid,4000000,44.050000,126.166670,Point
47362,2006-01-01T00:00:00.000,Fell,Jodiya,Valid,100,22.680000,70.313330,Point
12173,1877-01-01T00:00:00.000,Fell,Jodzie,Valid,30,55.700000,24.400000,Point
12198,1924-01-01T00:00:00.000,Fell,Johnstown,Valid,40300,40.350000,-104.900000,Point
12199,1974-01-01T00:00:00.000,Fell,Jolomba,Valid,483,-11.850000,15.833330,Point
12202,1819-01-01T00:00:00.000,Fell,Jonzac,Valid,5000,45.433330,-0.450000,Point
12203,1997-01-01T00:00:00.000,Fell,Juancheng,Valid,100000,35.500000,115.416670,Point
12207,1876-01-01T00:00:00.000,Fell,Judesegeri,Valid,680,12.850000,76.800000,Point
12209,1984-01-01T00:00:00.000,Fell,Jumapalo,Valid,32490,-7.716670,111.200000,Point
12210,1976-01-01T00:00:00.000,Fell,Junan,Valid,950,35.200000,118.800000,Point
12213,1968-01-01T00:00:00.000,Fell,Juromenha,Valid,25250,38.740280,-7.270000,Point
12214,1821-01-01T00:00:00.000,Fell,Juvinas,Valid,91000,44.716670,4.300000,Point
12218,1857-01-01T00:00:00.000,Fell,Kaba,Valid,3000,47.350000,21.300000,Point
12220,1971-01-01T00:00:00.000,Fell,Kabo,Valid,13400,11.850000,8.216670,Point
12221,1822-01-01T00:00:00.000,Fell,Kadonah,Valid,89,27.083330,78.333330,Point
12222,1838-01-01T00:00:00.000,Fell,Kaee,Valid,230,27.250000,79.966670,Point
12227,1908-01-01T00:00:00.000,Fell,Kagarlyk,Valid,1900,49.866670,30.833330,Point
12228,1980-01-01T00:00:00.000,Fell,Kaidun,Valid,2000,15.000000,48.300000,Point
12229,1937-01-01T00:00:00.000,Fell,Kainsaz,Valid,200000,55.433330,53.250000,Point
12230,1890-01-01T00:00:00.000,Fell,Kakangari,Valid,350,12.383330,78.516670,Point
12231,1858-01-01T00:00:00.000,Fell,Kakowa,Valid,577,45.133330,21.666670,Point
12232,1951-01-01T00:00:00.000,Fell,Kalaba,Valid,950,-6.833330,29.500000,Point
12236,1879-01-01T00:00:00.000,Fell,Kalumbi,Valid,4500,17.833330,73.983330,Point
12238,1942-01-01T00:00:00.000,Fell,Kamalpur,Valid,2770,26.033330,81.466670,Point
12240,1913-01-01T00:00:00.000,Fell,Kamiomi,Valid,448,36.041670,139.956670,Point
12241,1902-01-01T00:00:00.000,Fell,Kamsagar,Valid,1293,14.183330,75.800000,Point
12243,1959-01-01T00:00:00.000,Fell,Kandahar (Afghanistan),Valid,299,31.600000,65.783330,Point
12245,1908-01-01T00:00:00.000,Fell,Kangean,Valid,1630,-7.000000,115.500000,Point
12246,1897-01-01T00:00:00.000,Fell,Kangra Valley,Valid,400,32.083330,76.300000,Point
12251,1942-01-01T00:00:00.000,Fell,Kapoeta,Valid,11355,4.700000,33.633330,Point
47357,2004-01-01T00:00:00.000,Fell,Kaprada,Valid,1600,20.339160,73.223290,Point
12253,1937-01-01T00:00:00.000,Fell,Kaptal-Aryk,Valid,3500,42.450000,73.366670,Point
12256,1840-01-01T00:00:00.000,Fell,Karakol,Valid,3000,47.216670,81.016670,Point
12258,1963-01-01T00:00:00.000,Fell,Karatu,Valid,2220,-3.500000,35.583330,Point
12260,1949-01-01T00:00:00.000,Fell,Karewar,Valid,180,12.900000,7.150000,Point
12262,1905-01-01T00:00:00.000,Fell,Karkh,Valid,22000,27.800000,67.166670,Point
12263,1955-01-01T00:00:00.000,Fell,Karloowala,Valid,2950,31.583330,71.600000,Point
12264,1930-01-01T00:00:00.000,Fell,Karoonda,Valid,41730,-35.083330,139.916670,Point
12266,1938-01-01T00:00:00.000,Fell,Kasamatsu,Valid,710,35.366670,136.766670,Point
30740,2003-01-01T00:00:00.000,Fell,Kasauli,Valid,16820,29.583330,77.583330,Point
35465,1999-01-01T00:00:00.000,Fell,Katagum,Valid,1500,11.333330,10.083330,Point
47351,2006-01-01T00:00:00.000,Fell,Kavarpura,Valid,6800,25.143330,75.813330,Point
12268,1961-01-01T00:00:00.000,Fell,Kayakent,Valid,85000,39.263330,31.780000,Point
12270,1940-01-01T00:00:00.000,Fell,Kediri,Valid,3300,-7.750000,112.016670,Point
53654,2008-01-01T00:00:00.000,Fell,Kemer,Valid,5760,36.541940,29.418220,Point
12275,1939-01-01T00:00:00.000,Fell,Kendleton,Valid,6937,29.450000,-96.000000,Point
12276,2003-01-01T00:00:00.000,Fell,Kendrapara,Valid,6669.2,20.462500,86.702780,Point
12282,1874-01-01T00:00:00.000,Fell,Kerilis,Valid,5000,48.400000,-3.300000,Point
12284,1869-01-01T00:00:00.000,Fell,Kernouve,Valid,80000,48.116670,-3.083330,Point
12286,1850-01-01T00:00:00.000,Fell,Kesen,Valid,135000,38.983330,141.616670,Point
12288,1873-01-01T00:00:00.000,Fell,Khairpur,Valid,13600,29.533330,72.300000,Point
12289,1932-01-01T00:00:00.000,Fell,Khanpur,Valid,3698,25.550000,83.116670,Point
12291,1787-01-01T00:00:00.000,Fell,Kharkov,Valid,1500,50.625000,35.075000,Point
12294,1860-01-01T00:00:00.000,Fell,Kheragur,Valid,450,26.950000,77.883330,Point
12296,1867-01-01T00:00:00.000,Fell,Khetri,Valid,100,28.016670,75.816670,Point
12297,1929-01-01T00:00:00.000,Fell,Khmelevka,Valid,6109,56.750000,75.333330,Point
12298,1910-01-01T00:00:00.000,Fell,Khohar,Valid,9700,25.100000,81.533330,Point
12299,1932-01-01T00:00:00.000,Fell,Khor Temiki,Valid,3200,16.000000,36.000000,Point
12300,1983-01-01T00:00:00.000,Fell,Kidairat,Valid,100000,14.000000,28.000000,Point
12301,1962-01-01T00:00:00.000,Fell,Kiel,Valid,737.6,54.400000,10.150000,Point
12303,1970-01-01T00:00:00.000,Fell,Kiffa,Valid,1500,16.583330,-11.333330,Point
12305,1906-01-01T00:00:00.000,Fell,Kijima (1906),Valid,331,36.850000,138.383330,Point
12306,1809-01-01T00:00:00.000,Fell,Kikino,Valid,195,55.000000,34.000000,Point
12307,2002-01-01T00:00:00.000,Fell,Kilabo,Valid,19000,12.766670,9.800000,Point
12308,1911-01-01T00:00:00.000,Fell,Kilbourn,Valid,772,43.583330,-89.600000,Point
12309,1844-01-01T00:00:00.000,Fell,Killeter,Valid,140,54.666670,-7.666670,Point
12316,1967-01-01T00:00:00.000,Fell,Kingai,Valid,67.400000000000006,11.633330,24.683330,Point
12321,1906-01-01T00:00:00.000,Fell,Kirbyville,Valid,97.7,30.750000,-95.950000,Point
12325,1914-01-01T00:00:00.000,Fell,Kisvarsány,Valid,1550,48.166670,22.308330,Point
12326,1998-01-01T00:00:00.000,Fell,Kitchener,Valid,202.6,43.383330,-80.383330,Point
12332,1843-01-01T00:00:00.000,Fell,Klein-Wenden,Valid,3250,51.600000,10.800000,Point
12335,1866-01-01T00:00:00.000,Fell,Knyahinya,Valid,500000,48.900000,22.400000,Point
12336,1999-01-01T00:00:00.000,Fell,Kobe,Valid,136,34.733330,135.166670,Point
12342,1986-01-01T00:00:00.000,Fell,Kokubunji,Valid,11510,34.300000,133.950000,Point
12343,1926-01-01T00:00:00.000,Fell,Komagome,Valid,238,35.733330,139.750000,Point
12344,1931-01-01T00:00:00.000,Fell,Konovo,Valid,90,42.516670,26.166670,Point
53810,2010-01-01T00:00:00.000,Fell,Košice,Valid,4300,48.763670,21.176330,Point
12353,1869-01-01T00:00:00.000,Fell,Krähenberg,Valid,16500,49.326940,7.464720,Point
12355,1829-01-01T00:00:00.000,Fell,Krasnoi-Ugol,Valid,2440,54.033330,40.900000,Point
12357,1946-01-01T00:00:00.000,Fell,Krasnyi Klyuch,Valid,4000,54.333330,56.083330,Point
12363,1906-01-01T00:00:00.000,Fell,Krutikha,Valid,845.2,56.800000,77.000000,Point
12364,1946-01-01T00:00:00.000,Fell,Krymka,Valid,50000,47.833330,30.766670,Point
12368,1938-01-01T00:00:00.000,Fell,Kukschin,Valid,2250,51.150000,31.700000,Point
12369,1961-01-01T00:00:00.000,Fell,Kulak,Valid,453.6,30.731110,66.802220,Point
12370,1811-01-01T00:00:00.000,Fell,Kuleschovka,Valid,6000,50.750000,33.500000,Point
12373,1906-01-01T00:00:00.000,Fell,Kulp,Valid,3719,41.116670,45.000000,Point
12377,1949-01-01T00:00:00.000,Fell,Kunashak,Valid,200000,55.783330,61.366670,Point
12379,1998-01-01T00:00:00.000,Fell,Kunya-Urgench,Valid,1100000,42.250000,59.200000,Point
12381,1920-01-01T00:00:00.000,Fell,Kushiike,Valid,4460,37.050000,138.383330,Point
12382,1860-01-01T00:00:00.000,Fell,Kusiali,Valid,5,29.683330,78.383330,Point
12383,1977-01-01T00:00:00.000,Fell,Kutais,Valid,23,44.516670,39.300000,Point
12384,1914-01-01T00:00:00.000,Fell,Kuttippuram,Valid,45000,10.833330,76.033330,Point
12385,1932-01-01T00:00:00.000,Fell,Kuznetzovo,Valid,4047,55.200000,75.333330,Point
12390,1886-01-01T00:00:00.000,Fell,Kyushu,Valid,45000,32.033330,130.633330,Point
12392,1879-01-01T00:00:00.000,Fell,La Bécasse,Valid,2800,47.083330,1.750000,Point
12394,1878-01-01T00:00:00.000,Fell,La Charca,Valid,399,20.666670,-101.283330,Point
12395,1924-01-01T00:00:00.000,Fell,La Colina,Valid,2000,-37.333330,-61.533330,Point
12396,1985-01-01T00:00:00.000,Fell,La Criolla,Valid,45000,-31.233330,-58.166670,Point
12408,1871-01-01T00:00:00.000,Fell,Laborel,Valid,3833,44.283330,5.583330,Point
12433,1955-01-01T00:00:00.000,Fell,Lahrauli,Valid,900,26.783330,82.716670,Point
12434,1803-01-01T00:00:00.000,Fell,L'Aigle,Valid,37000,48.766670,0.633330,Point
32531,2003-01-01T00:00:00.000,Found,Cumulus Hills 04075,Valid,9.6,,,
12435,1910-01-01T00:00:00.000,Fell,Lakangaon,Valid,212.5,21.866670,76.033330,Point
12451,1887-01-01T00:00:00.000,Fell,Lalitpur,Valid,372,24.450000,78.566670,Point
12455,1872-01-01T00:00:00.000,Fell,Lancé,Valid,51700,47.700000,1.066670,Point
12456,1897-01-01T00:00:00.000,Fell,Lancon,Valid,7000,43.750000,5.116670,Point
12461,1947-01-01T00:00:00.000,Fell,Långhalsen,Valid,2300,58.850000,16.733330,Point
12464,1986-01-01T00:00:00.000,Fell,Lanxi,Valid,1282,46.241670,126.196110,Point
12465,1925-01-01T00:00:00.000,Fell,Lanzenkirchen,Valid,7000,47.750000,16.233330,Point
12466,1987-01-01T00:00:00.000,Fell,Laochenzhen,Valid,14250,33.133330,115.166670,Point
12740,1830-01-01T00:00:00.000,Fell,Launton,Valid,1060,51.900000,-1.116670,Point
12743,1938-01-01T00:00:00.000,Fell,Lavrentievka,Valid,800,52.450000,51.566670,Point
12748,1845-01-01T00:00:00.000,Fell,Le Pressoir,Valid,3000,47.166670,0.433330,Point
12749,1845-01-01T00:00:00.000,Fell,Le Teilleul,Valid,780,48.533330,-0.866670,Point
12755,1943-01-01T00:00:00.000,Fell,Leedey,Valid,51500,35.883330,-99.333330,Point
12756,1912-01-01T00:00:00.000,Fell,Leeuwfontein,Valid,460,-25.666670,28.366670,Point
12759,1999-01-01T00:00:00.000,Fell,Leighlinbridge,Valid,271.39999999999998,52.666670,-6.966670,Point
12760,1907-01-01T00:00:00.000,Fell,Leighton,Valid,877,34.583330,-87.500000,Point
12765,1900-01-01T00:00:00.000,Fell,Leonovka,Valid,700,52.266670,32.850000,Point
12769,1857-01-01T00:00:00.000,Fell,Les Ormes,Valid,125,48.350000,3.250000,Point
12772,1896-01-01T00:00:00.000,Fell,Lesves,Valid,2000,50.366670,4.733330,Point
14646,1973-01-01T00:00:00.000,Fell,Lichtenberg,Valid,4000,-26.150000,26.183330,Point
14650,1930-01-01T00:00:00.000,Fell,Lillaverke,Valid,6862,56.650000,15.866670,Point
14652,1813-01-01T00:00:00.000,Fell,Limerick,Valid,50000,52.566670,-8.783330,Point
14655,1854-01-01T00:00:00.000,Fell,Linum,Valid,1862,52.750000,12.900000,Point
14659,1978-01-01T00:00:00.000,Fell,Lishui,Valid,498,31.633330,118.983330,Point
14661,1808-01-01T00:00:00.000,Fell,Lissa,Valid,12800,50.200000,14.850000,Point
14664,1839-01-01T00:00:00.000,Fell,Little Piney,Valid,491,37.916670,-92.083330,Point
14670,1820-01-01T00:00:00.000,Fell,Lixna,Valid,5213,56.000000,26.433330,Point
14675,1868-01-01T00:00:00.000,Fell,Lodran,Valid,1000,29.533330,71.800000,Point
14678,1994-01-01T00:00:00.000,Fell,Lohawat,Valid,40000,26.965560,72.626670,Point
52843,2010-01-01T00:00:00.000,Fell,Lorton,Valid,329.7,38.700660,-77.211630,Point
14708,1894-01-01T00:00:00.000,Fell,Los Martinez,Valid,25,38.000000,-0.833330,Point
14711,1970-01-01T00:00:00.000,Fell,Lost City,Valid,17000,36.008330,-95.150000,Point
14716,1977-01-01T00:00:00.000,Fell,Louisville,Valid,1300,38.250000,-85.750000,Point
14718,1935-01-01T00:00:00.000,Fell,Łowicz,Valid,59000,52.000000,19.916670,Point
14721,1926-01-01T00:00:00.000,Fell,Lua,Valid,9241,24.950000,75.150000,Point
14724,1768-01-01T00:00:00.000,Fell,Lucé,Valid,3500,47.850000,0.483330,Point
14753,1869-01-01T00:00:00.000,Fell,Lumpkin,Valid,340,32.033330,-84.766670,Point
14754,1980-01-01T00:00:00.000,Fell,Lunan,Valid,2520,24.800000,103.300000,Point
14755,1889-01-01T00:00:00.000,Fell,Lundsgård,Valid,11000,56.216670,13.033330,Point
14756,1813-01-01T00:00:00.000,Fell,Luotolax,Valid,885,61.200000,27.700000,Point
14757,1753-01-01T00:00:00.000,Fell,Luponnas,Valid,14000,46.216670,5.000000,Point
14759,1951-01-01T00:00:00.000,Fell,Lusaka,Valid,,-7.216670,29.433330,Point
14764,1937-01-01T00:00:00.000,Fell,Mabwe-Khoywa,Valid,540,19.000000,97.000000,Point
15370,1836-01-01T00:00:00.000,Fell,Macau,Valid,1500,-5.200000,-36.666670,Point
15371,1981-01-01T00:00:00.000,Fell,Machinga,Valid,93200,-15.212220,35.242220,Point
15372,1936-01-01T00:00:00.000,Fell,Macibini,Valid,1995,-28.833330,31.950000,Point
15379,1950-01-01T00:00:00.000,Fell,Madhipura,Valid,1000,25.916670,86.366670,Point
15380,1935-01-01T00:00:00.000,Fell,Madiun,Valid,400,-7.750000,111.533330,Point
15382,1896-01-01T00:00:00.000,Fell,Madrid,Valid,400,40.416670,-3.716670,Point
15383,1941-01-01T00:00:00.000,Fell,Mafra,Valid,600,-26.166670,-49.933330,Point
15386,1899-01-01T00:00:00.000,Fell,Magnesia,Valid,5000,37.866670,27.516670,Point
15387,1990-01-01T00:00:00.000,Fell,Magombedze,Valid,666.6,-19.483330,31.650000,Point
47361,2007-01-01T00:00:00.000,Fell,Mahadevpur,Valid,70500,27.666670,95.783330,Point
30751,2004-01-01T00:00:00.000,Fell,Maigatari-Danduma,Valid,4629,12.833330,9.383330,Point
15393,1933-01-01T00:00:00.000,Fell,Malaga,Valid,150,32.216670,-104.000000,Point
15394,1970-01-01T00:00:00.000,Fell,Malakal,Valid,2000,9.500000,31.750000,Point
15395,1930-01-01T00:00:00.000,Fell,Malampaka,Valid,470,-3.133330,33.516670,Point
15397,1931-01-01T00:00:00.000,Fell,Malotas,Valid,,-28.933330,-63.233330,Point
15400,1933-01-01T00:00:00.000,Fell,Malvern,Valid,807,-29.450000,26.766670,Point
15401,1927-01-01T00:00:00.000,Fell,Mamra Springs,Valid,1000,45.216670,62.083330,Point
15402,1863-01-01T00:00:00.000,Fell,Manbhoom,Valid,1700,23.050000,86.700000,Point
15403,1843-01-01T00:00:00.000,Fell,Manegaon,Valid,50,20.966670,76.100000,Point
15405,1934-01-01T00:00:00.000,Fell,Mangwendi,Valid,22300,-17.650000,31.600000,Point
15409,1951-01-01T00:00:00.000,Fell,Manych,Valid,3555,45.816670,44.633330,Point
15414,1948-01-01T00:00:00.000,Fell,Mardan,Valid,4500,34.233330,72.083330,Point
15418,1925-01-01T00:00:00.000,Fell,Maria Linden,Valid,114,,,
15419,1898-01-01T00:00:00.000,Fell,Mariaville,Valid,340,42.716670,-99.383330,Point
48973,2009-01-01T00:00:00.000,Fell,Maribo,Valid,25.81,54.761830,11.467450,Point
15421,1941-01-01T00:00:00.000,Fell,Maridi,Valid,3200,4.666670,29.250000,Point
15422,1971-01-01T00:00:00.000,Fell,Marilia,Valid,2500,-22.250000,-49.933330,Point
15424,1847-01-01T00:00:00.000,Fell,Marion (Iowa),Valid,28400,41.900000,-91.600000,Point
15426,1902-01-01T00:00:00.000,Fell,Marjalahti,Valid,45000,61.500000,30.500000,Point
15429,1848-01-01T00:00:00.000,Fell,Marmande,Valid,3000,44.500000,0.150000,Point
15430,2002-01-01T00:00:00.000,Fell,Maromandia,Valid,6000,-14.200000,48.100000,Point
15436,1983-01-01T00:00:00.000,Fell,Maryville,Valid,1443,35.800000,-84.100000,Point
15438,1836-01-01T00:00:00.000,Fell,Mascombes,Valid,1000,45.366670,1.866670,Point
53653,2010-01-01T00:00:00.000,Fell,Mason Gully,Valid,24.54,0.000000,0.000000,Point
15443,1803-01-01T00:00:00.000,Fell,Mässing,Valid,1600,48.133330,12.616670,Point
15446,1768-01-01T00:00:00.000,Fell,Mauerkirchen,Valid,19000,48.183330,13.133330,Point
15447,1801-01-01T00:00:00.000,Fell,Mauritius,Valid,220,-20.000000,57.000000,Point
15451,1974-01-01T00:00:00.000,Fell,Mayo Belwa,Valid,4850,8.966670,12.083330,Point
15453,1885-01-01T00:00:00.000,Fell,Mazapil,Valid,4000,24.683330,-101.683330,Point
15454,1942-01-01T00:00:00.000,Fell,Maziba,Valid,4975,-1.216670,30.000000,Point
15455,1992-01-01T00:00:00.000,Fell,Mbale,Valid,150000,1.066670,34.166670,Point
15467,1953-01-01T00:00:00.000,Fell,Medanitos,Valid,31,-27.250000,-67.500000,Point
15469,1861-01-01T00:00:00.000,Fell,Meerut,Valid,22,29.016670,77.800000,Point
15470,1915-01-01T00:00:00.000,Fell,Meester-Cornelis,Valid,24750,-6.233330,106.883330,Point
15485,1862-01-01T00:00:00.000,Fell,Menow,Valid,10500,53.183330,13.150000,Point
15486,1903-01-01T00:00:00.000,Fell,Menziswyl,Valid,28.9,46.818670,7.218170,Point
15489,1878-01-01T00:00:00.000,Fell,Mern,Valid,4000,55.050000,12.066670,Point
15491,1945-01-01T00:00:00.000,Fell,Meru,Valid,6000,0.000000,37.666670,Point
15492,1920-01-01T00:00:00.000,Fell,Merua,Valid,71400,25.483330,81.983330,Point
15495,1955-01-01T00:00:00.000,Fell,Messina,Valid,2405,38.183330,15.566670,Point
16626,1897-01-01T00:00:00.000,Fell,Meuselbach,Valid,870,50.583330,11.100000,Point
16627,1949-01-01T00:00:00.000,Fell,Mezel,Valid,1300,45.766670,3.250000,Point
16628,1852-01-01T00:00:00.000,Fell,Mezö-Madaras,Valid,22700,46.500000,25.733330,Point
16629,1827-01-01T00:00:00.000,Fell,Mhow,Valid,350,25.900000,83.616670,Point
16631,1980-01-01T00:00:00.000,Fell,Mianchi,Valid,1100,34.800000,111.700000,Point
16632,1881-01-01T00:00:00.000,Fell,Middlesbrough,Valid,1600,54.566670,-1.166670,Point
52090,2010-01-01T00:00:00.000,Fell,Mifflin,Valid,3584,42.907500,-90.365560,Point
16634,1889-01-01T00:00:00.000,Fell,Mighei,Valid,8000,48.066670,30.966670,Point
16635,1992-01-01T00:00:00.000,Fell,Mihonoseki,Valid,6380,35.568330,133.220000,Point
16636,1944-01-01T00:00:00.000,Fell,Mike,Valid,224.2,46.233330,17.533330,Point
16640,1842-01-01T00:00:00.000,Fell,Milena,Valid,10000,46.183330,16.100000,Point
16643,1960-01-01T00:00:00.000,Fell,Millbillillie,Valid,330000,-26.450000,120.366670,Point
16645,1930-01-01T00:00:00.000,Fell,Miller (Arkansas),Valid,16700,35.400000,-92.050000,Point
16692,1632-01-01T00:00:00.000,Fell,Minamino,Valid,1040,35.078330,136.933330,Point
16696,1826-01-01T00:00:00.000,Fell,Mineo,Valid,42,37.283330,14.700000,Point
16697,1952-01-01T00:00:00.000,Fell,Min-Fan-Zhun,Valid,5500,32.333330,120.666670,Point
16700,1905-01-01T00:00:00.000,Fell,Minnichhof,Valid,550,47.700000,16.600000,Point
16701,1910-01-01T00:00:00.000,Fell,Mirzapur,Valid,8510,25.683330,83.250000,Point
16703,1890-01-01T00:00:00.000,Fell,Misshof,Valid,5800,56.666670,23.000000,Point
16707,1898-01-01T00:00:00.000,Fell,Mjelleim,Valid,100.7,61.733330,5.933330,Point
16709,1882-01-01T00:00:00.000,Fell,Mocs,Valid,300000,46.800000,24.033330,Point
16711,1905-01-01T00:00:00.000,Fell,Modoc (1905),Valid,35000,38.500000,-101.100000,Point
16713,1908-01-01T00:00:00.000,Fell,Mokoia,Valid,4500,-39.633330,174.400000,Point
16715,1858-01-01T00:00:00.000,Fell,Molina,Valid,144000,38.116670,-1.166670,Point
16717,1953-01-01T00:00:00.000,Fell,Molteno,Valid,150,-31.250000,26.466670,Point
16719,1998-01-01T00:00:00.000,Fell,Monahans (1998),Valid,2587,31.608330,-102.858330,Point
16720,1849-01-01T00:00:00.000,Fell,Monroe,Valid,8600,35.250000,-80.500000,Point
16725,1950-01-01T00:00:00.000,Fell,Monte das Fortes,Valid,4885,38.016670,-8.250000,Point
16726,1846-01-01T00:00:00.000,Fell,Monte Milone,Valid,3130,43.266670,13.350000,Point
16727,1923-01-01T00:00:00.000,Fell,Montferré,Valid,149000,43.390560,1.962500,Point
16729,1838-01-01T00:00:00.000,Fell,Montlivault,Valid,500,47.633330,1.583330,Point
16733,1950-01-01T00:00:00.000,Fell,Monze,Valid,,-15.966670,27.350000,Point
16736,1913-01-01T00:00:00.000,Fell,Moore County,Valid,1880,35.416670,-79.383330,Point
16737,1810-01-01T00:00:00.000,Fell,Mooresfort,Valid,3520,52.450000,-8.333330,Point
16738,1930-01-01T00:00:00.000,Fell,Moorleah,Valid,8887.5,-40.975000,145.600000,Point
16740,1808-01-01T00:00:00.000,Fell,Moradabad,Valid,70,28.783330,78.833330,Point
16742,2000-01-01T00:00:00.000,Fell,Morávka,Valid,633,49.600000,18.533330,Point
16747,1875-01-01T00:00:00.000,Fell,Mornans,Valid,1300,44.600000,5.133330,Point
36592,2006-01-01T00:00:00.000,Fell,Moss,Valid,3763,59.433330,10.700000,Point
16759,1868-01-01T00:00:00.000,Fell,Moti-ka-nagla,Valid,1500,26.833330,77.333330,Point
16762,1868-01-01T00:00:00.000,Fell,Motta di Conti,Valid,9150,45.200000,8.500000,Point
16766,1902-01-01T00:00:00.000,Fell,Mount Browne,Valid,11300,-29.800000,141.700000,Point
16804,1991-01-01T00:00:00.000,Fell,Mount Tazerzait,Valid,110000,18.700000,4.800000,Point
16805,1637-01-01T00:00:00.000,Fell,Mount Vaisi,Valid,17000,44.083330,6.866670,Point
16820,1944-01-01T00:00:00.000,Fell,Mtola,Valid,1100,-11.500000,33.500000,Point
16841,1865-01-01T00:00:00.000,Fell,Muddoor,Valid,4400,12.633330,77.016670,Point
16851,1795-01-01T00:00:00.000,Fell,Mulletiwu,Valid,25.5,9.333330,80.833330,Point
16874,1924-01-01T00:00:00.000,Fell,Muraid,Valid,4703,24.500000,90.216670,Point
16875,1969-01-01T00:00:00.000,Fell,Murchison,Valid,100000,-36.616670,145.200000,Point
16882,1950-01-01T00:00:00.000,Fell,Murray,Valid,12600,36.600000,-88.100000,Point
16885,1964-01-01T00:00:00.000,Fell,Muzaffarpur,Valid,1245,26.133330,85.533330,Point
16887,1842-01-01T00:00:00.000,Fell,Myhee Caunta,Valid,,23.050000,72.633330,Point
16889,1956-01-01T00:00:00.000,Fell,Nadiabondi,Valid,8165,12.000000,1.000000,Point
16890,1922-01-01T00:00:00.000,Fell,Nagai,Valid,1810,38.121670,140.061670,Point
16892,1875-01-01T00:00:00.000,Fell,Nagaria,Valid,20,26.983330,78.216670,Point
16893,1895-01-01T00:00:00.000,Fell,Nagy-Borové,Valid,6100,49.166670,19.500000,Point
16898,1911-01-01T00:00:00.000,Fell,Nakhla,Valid,10000,31.316670,30.350000,Point
16899,1923-01-01T00:00:00.000,Fell,Nakhon Pathom,Valid,23200,13.733330,100.083330,Point
16902,1886-01-01T00:00:00.000,Fell,Nammianthal,Valid,4500,12.283330,79.200000,Point
16903,1917-01-01T00:00:00.000,Fell,Nan Yang Pao,Valid,52900,35.666670,103.500000,Point
16904,1825-01-01T00:00:00.000,Fell,Nanjemoy,Valid,7500,38.416670,-77.166670,Point
16907,1984-01-01T00:00:00.000,Fell,Nantong,Valid,529,32.116670,121.800000,Point
16908,1928-01-01T00:00:00.000,Fell,Naoki,Valid,17000,19.250000,77.000000,Point
16909,1974-01-01T00:00:00.000,Fell,Naragh,Valid,2700,33.750000,51.500000,Point
16912,1928-01-01T00:00:00.000,Fell,Narellan,Valid,367.5,-34.050000,150.688890,Point
16914,0921-01-01T00:00:00.000,Fell,Narni,Valid,,42.516670,12.516670,Point
16922,1936-01-01T00:00:00.000,Fell,Nassirah,Valid,347,-21.733330,165.900000,Point
16923,1973-01-01T00:00:00.000,Fell,Natal,Valid,1.4,,,
16927,1890-01-01T00:00:00.000,Fell,Nawapali,Valid,105,21.250000,83.666670,Point
16934,1995-01-01T00:00:00.000,Fell,Neagari,Valid,420,36.449170,136.465280,Point
16935,1870-01-01T00:00:00.000,Fell,Nedagolla,Valid,4500,18.683330,83.483330,Point
16941,1970-01-01T00:00:00.000,Fell,Nejo,Valid,2450,9.500000,35.333330,Point
16945,1864-01-01T00:00:00.000,Fell,Nerft,Valid,10250,56.500000,21.500000,Point
16950,2002-01-01T00:00:00.000,Fell,Neuschwanstein,Valid,6189,47.525000,10.808330,Point
16953,1860-01-01T00:00:00.000,Fell,New Concord,Valid,230000,40.000000,-81.766670,Point
16954,1994-01-01T00:00:00.000,Fell,New Halfa,Valid,12000,15.366670,35.683330,Point
16960,2003-01-01T00:00:00.000,Fell,New Orleans,Valid,19256,29.947180,-90.109760,Point
16966,1883-01-01T00:00:00.000,Fell,Ngawi,Valid,1393,-7.450000,111.416670,Point
16968,1900-01-01T00:00:00.000,Fell,N'Goureyma,Valid,37500,13.850000,-4.383330,Point
16970,1750-01-01T00:00:00.000,Fell,Nicorps,Valid,,49.033330,-1.433330,Point
16974,1967-01-01T00:00:00.000,Fell,Niger (L6),Valid,3.3,,,
16975,1967-01-01T00:00:00.000,Fell,Niger (LL6),Valid,3.3,,,
16976,1935-01-01T00:00:00.000,Fell,Nikolaevka,Valid,3996,52.450000,78.633330,Point
16977,1954-01-01T00:00:00.000,Fell,Nikolskoe,Valid,6000,56.116670,37.333330,Point
16980,1975-01-01T00:00:00.000,Fell,Ningbo,Valid,14250,29.866670,121.483330,Point
16981,1983-01-01T00:00:00.000,Fell,Ningqiang,Valid,4610,32.925000,105.906670,Point
16982,1897-01-01T00:00:00.000,Fell,Nio,Valid,467,34.200000,131.566670,Point
16983,1912-01-01T00:00:00.000,Fell,N'Kandhla,Valid,17200,-28.566670,30.700000,Point
16984,1823-01-01T00:00:00.000,Fell,Nobleborough,Valid,2300,44.083330,-69.483330,Point
16985,1991-01-01T00:00:00.000,Fell,Noblesville,Valid,483.7,40.085280,-86.055000,Point
16988,0861-01-01T00:00:00.000,Fell,Nogata,Valid,472,33.725000,130.750000,Point
16989,1879-01-01T00:00:00.000,Fell,Nogoya,Valid,4000,-32.366670,-59.833330,Point
16994,1918-01-01T00:00:00.000,Fell,Norfork,Valid,1050,36.216670,-92.266670,Point
17922,1948-01-01T00:00:00.000,Fell,Norton County,Valid,1100000,39.683330,-99.866670,Point
17930,1971-01-01T00:00:00.000,Fell,Noventa Vicentina,Valid,177,45.291670,11.527220,Point
17933,1886-01-01T00:00:00.000,Fell,Novo-Urei,Valid,1900,54.816670,46.000000,Point
17934,1662-01-01T00:00:00.000,Fell,Novy-Ergi,Valid,,58.550000,31.333330,Point
17935,1908-01-01T00:00:00.000,Fell,Novy-Projekt,Valid,1001,56.000000,22.000000,Point
17936,1933-01-01T00:00:00.000,Fell,Noyan-Bogdo,Valid,250,42.916670,102.466670,Point
17938,1978-01-01T00:00:00.000,Fell,Nuevo Mercurio,Valid,50000,24.300000,-102.133330,Point
17959,1851-01-01T00:00:00.000,Fell,Nulles,Valid,5000,41.633330,0.750000,Point
17960,1925-01-01T00:00:00.000,Fell,Numakai,Valid,363,43.333330,141.866670,Point
17969,1939-01-01T00:00:00.000,Fell,Nyaung,Valid,737.6,21.208330,94.916670,Point
17970,1914-01-01T00:00:00.000,Fell,Nyirábrany,Valid,1100,47.550000,22.025000,Point
17979,1887-01-01T00:00:00.000,Fell,Ochansk,Valid,500000,57.783330,55.266670,Point
17988,1927-01-01T00:00:00.000,Fell,Oesede,Valid,1400,52.283330,8.050000,Point
17989,1855-01-01T00:00:00.000,Fell,Oesel,Valid,6000,58.500000,23.000000,Point
17990,1900-01-01T00:00:00.000,Fell,Ofehértó,Valid,3750,47.883330,22.033330,Point
17994,1741-01-01T00:00:00.000,Fell,Ogi,Valid,14360,33.283330,130.200000,Point
17995,1857-01-01T00:00:00.000,Fell,Ohaba,Valid,16250,46.066670,23.583330,Point
17996,1963-01-01T00:00:00.000,Fell,Ohuma,Valid,7700,6.750000,8.500000,Point
17997,1926-01-01T00:00:00.000,Fell,Ojuelos Altos,Valid,5850,38.183330,-5.400000,Point
17998,1958-01-01T00:00:00.000,Fell,Okabe,Valid,194,36.183330,139.216670,Point
18000,1904-01-01T00:00:00.000,Fell,Okano,Valid,4742,35.083330,135.200000,Point
18002,1834-01-01T00:00:00.000,Fell,Okniny,Valid,12000,50.833330,25.500000,Point
18009,1930-01-01T00:00:00.000,Fell,Oldenburg (1930),Valid,16570,52.950000,8.166670,Point
18012,1520-01-01T00:00:00.000,Fell,Oliva-Gandia,Valid,,39.000000,-0.033330,Point
18013,1924-01-01T00:00:00.000,Fell,Olivenza,Valid,150000,38.716670,-7.066670,Point
18015,1929-01-01T00:00:00.000,Fell,Olmedilla de Alarcón,Valid,40000,39.566670,-2.100000,Point
18019,1981-01-01T00:00:00.000,Fell,Omolon,Valid,250000,64.020000,161.808330,Point
18026,1864-01-01T00:00:00.000,Fell,Orgueil,Valid,14000,43.883330,1.383330,Point
34489,2004-01-01T00:00:00.000,Fell,Orlando,Valid,180,28.547500,-81.362220,Point
18030,1868-01-01T00:00:00.000,Fell,Ornans,Valid,6000,47.116670,6.150000,Point
18033,1671-01-01T00:00:00.000,Fell,Ortenau,Valid,4500,48.500000,8.000000,Point
18034,1872-01-01T00:00:00.000,Fell,Orvinio,Valid,3400,42.133330,12.933330,Point
18042,1928-01-01T00:00:00.000,Fell,Oterøy,Valid,246,58.883330,9.400000,Point
18045,1867-01-01T00:00:00.000,Fell,Otomi,Valid,6510,38.400000,140.350000,Point
18046,1896-01-01T00:00:00.000,Fell,Ottawa,Valid,840,38.600000,-95.216670,Point
56729,2003-01-01T00:00:00.000,Fell,Ouadangou,Valid,4440,12.900000,0.080000,Point
18050,1986-01-01T00:00:00.000,Fell,Oued el Hadjar,Valid,1215.5,30.180000,-6.577170,Point
31282,2003-01-01T00:00:00.000,Fell,Oum Dreyga,Valid,17000,24.300000,-13.100000,Point
18052,1998-01-01T00:00:00.000,Fell,Ourique,Valid,20000,37.608330,-8.280000,Point
18055,1900-01-01T00:00:00.000,Fell,Ovambo,Valid,121.5,-18.000000,16.000000,Point
18058,1856-01-01T00:00:00.000,Fell,Oviedo,Valid,205,43.400000,-5.866670,Point
18062,1775-01-01T00:00:00.000,Fell,Owrucz,Valid,,51.333330,28.833330,Point
18068,1881-01-01T00:00:00.000,Fell,Pacula,Valid,3400,21.050000,-99.300000,Point
18069,1929-01-01T00:00:00.000,Fell,Padvarninkai,Valid,3858,55.666670,25.000000,Point
18072,1910-01-01T00:00:00.000,Fell,Paitan,Valid,515,17.743330,120.455830,Point
18073,1910-01-01T00:00:00.000,Fell,Palahatchie,Valid,,32.316670,-89.716670,Point
18074,1988-01-01T00:00:00.000,Fell,Palca de Aparzo,Valid,1430,-23.116670,-65.100000,Point
18077,1914-01-01T00:00:00.000,Fell,Palinshih,Valid,18000,43.483330,118.616670,Point
18079,1926-01-01T00:00:00.000,Fell,Palmyra,Valid,135,39.800000,-91.500000,Point
18082,1949-01-01T00:00:00.000,Fell,Palolo Valley,Valid,682,21.300000,-157.783330,Point
32591,2002-01-01T00:00:00.000,Found,Dominion Range 03239,Valid,69.5,,,
18093,1859-01-01T00:00:00.000,Fell,Pampanga,Valid,10500,15.083330,120.700000,Point
18098,1938-01-01T00:00:00.000,Fell,Pantar,Valid,2130,8.066670,124.283330,Point
18101,1930-01-01T00:00:00.000,Fell,Paragould,Valid,408000,36.066670,-90.500000,Point
18102,1967-01-01T00:00:00.000,Fell,Parambu,Valid,2000,-6.233330,-40.700000,Point
18103,1956-01-01T00:00:00.000,Fell,Paranaiba,Valid,100000,-19.133330,-51.666670,Point
18106,2003-01-01T00:00:00.000,Fell,Park Forest,Valid,18000,41.484720,-87.679170,Point
18108,1857-01-01T00:00:00.000,Fell,Parnallee,Valid,77600,9.233330,78.350000,Point
18109,1942-01-01T00:00:00.000,Fell,Parsa,Valid,800,26.200000,85.400000,Point
18110,1933-01-01T00:00:00.000,Fell,Pasamonte,Valid,5100,36.216670,-103.400000,Point
18112,1969-01-01T00:00:00.000,Fell,Patora,Valid,4375,20.936940,82.050000,Point
18116,1950-01-01T00:00:00.000,Fell,Patrimonio,Valid,2121,-19.533330,-48.566670,Point
18118,1922-01-01T00:00:00.000,Fell,Patti,Valid,12,38.133330,14.966670,Point
18171,1935-01-01T00:00:00.000,Fell,Patwar,Valid,37350,23.150000,91.183330,Point
18173,1966-01-01T00:00:00.000,Fell,Pavel,Valid,2968,43.466670,25.516670,Point
18175,1938-01-01T00:00:00.000,Fell,Pavlodar (stone),Valid,142.5,52.300000,77.033330,Point
18176,1826-01-01T00:00:00.000,Fell,Pavlograd,Valid,40000,48.533330,35.983330,Point
18177,1882-01-01T00:00:00.000,Fell,Pavlovka,Valid,2000,52.033330,43.000000,Point
18179,1989-01-01T00:00:00.000,Fell,Pê,Valid,,11.333670,-3.542170,Point
18180,1963-01-01T00:00:00.000,Fell,Peace River,Valid,45760,56.133330,-117.933330,Point
18181,1953-01-01T00:00:00.000,Fell,Peckelsheim,Valid,117.8,51.666670,9.250000,Point
18782,1992-01-01T00:00:00.000,Fell,Peekskill,Valid,12570,41.283330,-73.916670,Point
18786,1946-01-01T00:00:00.000,Fell,Peña Blanca Spring,Valid,70000,30.125000,-103.116670,Point
18792,1899-01-01T00:00:00.000,Fell,Peramiho,Valid,165,-10.666670,35.500000,Point
18793,1935-01-01T00:00:00.000,Fell,Perpeti,Valid,23474,23.325000,91.000000,Point
18797,1830-01-01T00:00:00.000,Fell,Perth,Valid,2,56.400000,-3.433330,Point
18798,1933-01-01T00:00:00.000,Fell,Pervomaisky,Valid,66000,56.633330,39.433330,Point
18799,1933-01-01T00:00:00.000,Fell,Pesyanoe,Valid,3393,55.500000,66.083330,Point
18800,1995-01-01T00:00:00.000,Fell,Pétèlkolé,Valid,189,14.052000,0.420000,Point
18801,1855-01-01T00:00:00.000,Fell,Petersburg,Valid,1800,35.300000,-86.633330,Point
18804,1779-01-01T00:00:00.000,Fell,Pettiswood,Valid,,53.533330,-7.333330,Point
18808,1901-01-01T00:00:00.000,Fell,Phillips County (stone),Valid,57900,40.000000,-99.250000,Point
18809,1887-01-01T00:00:00.000,Fell,Phu Hong,Valid,500,11.250000,108.583330,Point
18811,1933-01-01T00:00:00.000,Fell,Phum Sambo,Valid,7800,12.000000,105.483330,Point
18812,1941-01-01T00:00:00.000,Fell,Phuoc-Binh,Valid,11000,15.716670,108.100000,Point
18813,1968-01-01T00:00:00.000,Fell,Piancaldoli,Valid,13.1,44.244170,11.502220,Point
18816,1843-01-01T00:00:00.000,Fell,Picote,Valid,,41.366670,-6.233330,Point
18822,1863-01-01T00:00:00.000,Fell,Pillistfer,Valid,23250,58.666670,25.733330,Point
18831,1996-01-01T00:00:00.000,Fell,Piplia Kalan,Valid,42000,26.034720,73.941670,Point
18832,1881-01-01T00:00:00.000,Fell,Piquetberg,Valid,37,-32.866670,18.716670,Point
18834,1882-01-01T00:00:00.000,Fell,Pirgunje,Valid,842,25.800000,88.450000,Point
18835,1884-01-01T00:00:00.000,Fell,Pirthalla,Valid,1161,29.583330,76.000000,Point
18837,1921-01-01T00:00:00.000,Fell,Pitts,Valid,3760,31.950000,-83.516670,Point
18846,1930-01-01T00:00:00.000,Fell,Plantersville,Valid,2085,30.700000,-96.116670,Point
51706,2008-01-01T00:00:00.000,Fell,Pleşcoi,Valid,6913,45.275000,26.709720,Point
18849,1723-01-01T00:00:00.000,Fell,Ploschkovitz,Valid,39,50.533330,14.116670,Point
18851,1868-01-01T00:00:00.000,Fell,Pnompehn,Valid,96,11.583330,104.916670,Point
32592,2002-01-01T00:00:00.000,Found,Dominion Range 03240,Valid,290.89999999999998,,,
18853,1819-01-01T00:00:00.000,Fell,Pohlitz,Valid,3000,50.933330,12.133330,Point
18858,1866-01-01T00:00:00.000,Fell,Pokhra,Valid,350,26.716670,82.666670,Point
18860,1942-01-01T00:00:00.000,Fell,Pollen,Valid,253.6,66.348330,14.015000,Point
18865,1931-01-01T00:00:00.000,Fell,Pontlyfni,Valid,157,53.036390,-4.319440,Point
18874,1998-01-01T00:00:00.000,Fell,Portales Valley,Valid,71400,34.175000,-103.295000,Point
18876,1796-01-01T00:00:00.000,Fell,Portugal,Valid,4500,38.500000,-8.000000,Point
18879,1933-01-01T00:00:00.000,Fell,Po-wang Chen,Valid,665,31.416670,118.500000,Point
18883,1932-01-01T00:00:00.000,Fell,Prambachkirchen,Valid,2125,48.302500,13.940830,Point
18887,1959-01-01T00:00:00.000,Fell,Pribram,Valid,5555,49.666670,14.033330,Point
18888,1893-01-01T00:00:00.000,Fell,Pricetown,Valid,900,39.116670,-83.850000,Point
45984,2007-01-01T00:00:00.000,Fell,Puerto Lápice,Valid,500,39.350000,-3.516670,Point
18899,1863-01-01T00:00:00.000,Fell,Pulsora,Valid,560,23.366670,75.183330,Point
18901,1868-01-01T00:00:00.000,Fell,Pultusk,Valid,250000,52.766670,21.266670,Point
18902,1811-01-01T00:00:00.000,Fell,Punganaru,Valid,100,13.333330,78.950000,Point
18905,1937-01-01T00:00:00.000,Fell,Putinga,Valid,300000,-29.033330,-53.050000,Point
18907,1982-01-01T00:00:00.000,Fell,Qidong,Valid,1275,32.083330,121.500000,Point
18908,1976-01-01T00:00:00.000,Fell,Qingzhen,Valid,2600,26.533330,106.466670,Point
22357,1925-01-01T00:00:00.000,Fell,Queen's Mercy,Valid,7000,-30.116670,28.700000,Point
22358,1857-01-01T00:00:00.000,Fell,Quenggouk,Valid,6045,17.766670,95.183330,Point
22360,1898-01-01T00:00:00.000,Fell,Quesa,Valid,10750,39.000000,-0.666670,Point
22361,1990-01-01T00:00:00.000,Fell,Quija,Valid,17450,44.616670,126.133330,Point
22363,1851-01-01T00:00:00.000,Fell,Quincay,Valid,65,46.600000,0.250000,Point
22368,1957-01-01T00:00:00.000,Fell,Raco,Valid,5000,-26.666670,-65.450000,Point
22371,1986-01-01T00:00:00.000,Fell,Raghunathpura,Valid,10200,27.725280,76.465000,Point
31302,1983-01-01T00:00:00.000,Fell,Rahimyar Khan,Valid,67225,28.225000,70.200000,Point
22376,1878-01-01T00:00:00.000,Fell,Rakovka,Valid,9000,52.983330,37.033330,Point
22384,1940-01-01T00:00:00.000,Fell,Ramnagar,Valid,3766,26.450000,82.900000,Point
22385,1916-01-01T00:00:00.000,Fell,Rampurhat,Valid,100,24.166670,87.766670,Point
22386,1958-01-01T00:00:00.000,Fell,Ramsdorf,Valid,4682,51.883330,6.933330,Point
22387,1917-01-01T00:00:00.000,Fell,Ranchapur,Valid,290.39999999999998,23.983330,87.083330,Point
22390,1899-01-01T00:00:00.000,Fell,Rancho de la Presa,Valid,300,19.866670,-100.816670,Point
22392,1937-01-01T00:00:00.000,Fell,Rangala,Valid,3224.5,25.383330,72.016670,Point
22394,1919-01-01T00:00:00.000,Fell,Raoyang,Valid,4910,38.200000,115.700000,Point
22395,1961-01-01T00:00:00.000,Fell,Ras Tanura,Valid,6.1,26.666670,50.150000,Point
22396,1740-01-01T00:00:00.000,Fell,Rasgrad,Valid,24700,43.500000,26.533330,Point
22398,1880-01-01T00:00:00.000,Fell,Ratyn,Valid,910,52.200000,17.983330,Point
53502,2007-01-01T00:00:00.000,Fell,Red Canyon Lake,Valid,18.41,38.137420,-119.758120,Point
22584,1947-01-01T00:00:00.000,Fell,Reliegos,Valid,17300,42.475000,-5.333330,Point
22585,1919-01-01T00:00:00.000,Fell,Rembang,Valid,10000,-6.733330,111.366670,Point
22586,1824-01-01T00:00:00.000,Fell,Renazzo,Valid,1000,44.766670,11.283330,Point
22587,1925-01-01T00:00:00.000,Fell,Renca,Valid,300,-32.750000,-65.283330,Point
22589,1916-01-01T00:00:00.000,Fell,Renqiu,Valid,355,38.666670,116.133330,Point
22590,1933-01-01T00:00:00.000,Fell,Repeev Khutor,Valid,7000,48.600000,45.666670,Point
22592,1965-01-01T00:00:00.000,Fell,Revelstoke,Valid,1,51.333330,-118.950000,Point
22593,1929-01-01T00:00:00.000,Fell,Rewari,Valid,3332,28.200000,76.666670,Point
22597,1903-01-01T00:00:00.000,Fell,Rich Mountain,Valid,668,35.033330,-83.033330,Point
24140,1948-01-01T00:00:00.000,Fell,Uzcudun,Valid,20000,-44.116670,-66.150000,Point
22599,1918-01-01T00:00:00.000,Fell,Richardton,Valid,90000,46.883330,-102.316670,Point
22602,1980-01-01T00:00:00.000,Fell,Richland Springs,Valid,1900,31.250000,-99.033330,Point
22603,1828-01-01T00:00:00.000,Fell,Richmond,Valid,1800,37.466670,-77.500000,Point
22611,1934-01-01T00:00:00.000,Fell,Rio Negro,Valid,1310,-26.100000,-49.800000,Point
22614,1491-01-01T00:00:00.000,Fell,Rivolta de Bassi,Valid,103.3,45.483330,9.516670,Point
22637,1876-01-01T00:00:00.000,Fell,Rochester,Valid,340,41.083330,-86.283330,Point
22640,1895-01-01T00:00:00.000,Fell,Rockhampton,Valid,1641,-23.383330,150.516670,Point
22641,1871-01-01T00:00:00.000,Fell,Roda,Valid,400,42.300000,0.550000,Point
22642,1775-01-01T00:00:00.000,Fell,Rodach,Valid,2900,50.350000,10.800000,Point
22766,1921-01-01T00:00:00.000,Fell,Rose City,Valid,10600,44.516670,-83.950000,Point
22773,1876-01-01T00:00:00.000,Fell,Rowton,Valid,3500,52.766670,-2.516670,Point
22780,1976-01-01T00:00:00.000,Fell,Ruhobobo,Valid,465.5,-1.450000,29.833330,Point
22782,1934-01-01T00:00:00.000,Fell,Rumuruti,Valid,67,0.266670,36.533330,Point
22783,1949-01-01T00:00:00.000,Fell,Rupota,Valid,6000,-10.266670,38.766670,Point
22791,1914-01-01T00:00:00.000,Fell,Ryechki,Valid,13000,51.133330,34.500000,Point
22792,1855-01-01T00:00:00.000,Fell,Sabetmahet,Valid,1250,27.433330,82.083330,Point
22793,1999-01-01T00:00:00.000,Fell,Sabrum,Valid,478,23.083330,91.666670,Point
22796,1636-01-01T00:00:00.000,Fell,Sagan,Valid,,51.533330,14.883330,Point
23101,1914-01-01T00:00:00.000,Fell,Saint-Sauveur,Valid,14000,43.733330,1.383330,Point
23102,1966-01-01T00:00:00.000,Fell,Saint-Séverin,Valid,271000,45.300000,0.233330,Point
23103,1913-01-01T00:00:00.000,Fell,Sakauchi,Valid,4180,35.666670,136.300000,Point
23107,1981-01-01T00:00:00.000,Fell,Salem,Valid,61.4,44.979170,-122.969440,Point
23111,1798-01-01T00:00:00.000,Fell,Salles,Valid,9000,46.050000,4.633330,Point
23114,1985-01-01T00:00:00.000,Fell,Salzwedel,Valid,43,52.750000,11.050000,Point
23115,1921-01-01T00:00:00.000,Fell,Samelia,Valid,2462,25.666670,74.866670,Point
23128,1973-01-01T00:00:00.000,Fell,San Juan Capistrano,Valid,56,33.484720,-117.662500,Point
31315,2002-01-01T00:00:00.000,Fell,San Michele,Valid,237,43.666670,13.000000,Point
23130,1956-01-01T00:00:00.000,Fell,San Pedro de Quiles,Valid,282,-31.016670,-71.400000,Point
34063,1968-01-01T00:00:00.000,Fell,San Pedro Jacuaro,Valid,460,19.766670,-100.650000,Point
23161,1873-01-01T00:00:00.000,Fell,Santa Barbara,Valid,400,-29.200000,-51.866670,Point
23164,1939-01-01T00:00:00.000,Fell,Santa Cruz,Valid,60,24.166670,-99.333330,Point
23165,1924-01-01T00:00:00.000,Fell,Santa Isabel,Valid,5500,-33.900000,-61.700000,Point
50909,2008-01-01T00:00:00.000,Fell,Santa Lucia (2008),Valid,4000,-31.535556,-68.489444,Point
23171,1962-01-01T00:00:00.000,Fell,São Jose do Rio Preto,Valid,927,-20.810000,-49.380560,Point
23176,1918-01-01T00:00:00.000,Fell,Saratov,Valid,200000,52.550000,46.550000,Point
23187,1688-01-01T00:00:00.000,Fell,Sasagase,Valid,695,34.716670,137.783330,Point
23188,1868-01-01T00:00:00.000,Fell,Sauguis,Valid,4000,43.150000,-0.850000,Point
23190,1894-01-01T00:00:00.000,Fell,Savtschenskoje,Valid,2500,47.216670,29.866670,Point
23192,1986-01-01T00:00:00.000,Fell,Sayama,Valid,430,35.866670,139.400000,Point
23455,1934-01-01T00:00:00.000,Fell,Sazovice,Valid,412,49.233330,17.566670,Point
23457,1715-01-01T00:00:00.000,Fell,Schellin,Valid,7000,53.350000,15.050000,Point
23458,1968-01-01T00:00:00.000,Fell,Schenectady,Valid,283.3,42.860830,-73.950280,Point
23460,1846-01-01T00:00:00.000,Fell,Schönenberg,Valid,8000,48.116670,10.466670,Point
23472,1871-01-01T00:00:00.000,Fell,Searsmont,Valid,5400,44.366670,-69.200000,Point
23473,1917-01-01T00:00:00.000,Fell,Sediköy,Valid,240,38.300000,27.133330,Point
23476,1853-01-01T00:00:00.000,Fell,Segowlie,Valid,6930,26.750000,84.783330,Point
23481,1939-01-01T00:00:00.000,Fell,Selakopi,Valid,1590,-7.233330,107.333330,Point
23483,1947-01-01T00:00:00.000,Fell,Seldebourak,Valid,150,22.833330,4.983330,Point
23487,1940-01-01T00:00:00.000,Fell,Semarkona,Valid,691,22.250000,79.000000,Point
23495,1773-01-01T00:00:00.000,Fell,Sena,Valid,4000,41.716670,-0.050000,Point
23496,1993-01-01T00:00:00.000,Fell,Senboku,Valid,866,39.438330,140.511670,Point
23500,1966-01-01T00:00:00.000,Fell,Seoni,Valid,20000,21.683890,79.500830,Point
23501,1818-01-01T00:00:00.000,Fell,Seres,Valid,8500,41.050000,23.566670,Point
23502,1923-01-01T00:00:00.000,Fell,Serra de Magé,Valid,1800,-8.383330,-36.766670,Point
23504,1908-01-01T00:00:00.000,Fell,Sete Lagoas,Valid,350,-19.466670,-44.216670,Point
23508,1862-01-01T00:00:00.000,Fell,Sevilla,Valid,180,37.416670,-6.000000,Point
23509,1874-01-01T00:00:00.000,Fell,Sevrukovo,Valid,101000,50.616670,36.600000,Point
23512,1989-01-01T00:00:00.000,Fell,Sfax,Valid,7000,34.750000,10.716670,Point
23521,1850-01-01T00:00:00.000,Fell,Shalka,Valid,4000,23.100000,87.300000,Point
23525,1921-01-01T00:00:00.000,Fell,Sharps,Valid,1265,37.833330,-76.700000,Point
23529,1904-01-01T00:00:00.000,Fell,Shelburne,Valid,18600,44.050000,-80.166670,Point
23530,1865-01-01T00:00:00.000,Fell,Shergotty,Valid,5000,24.550000,84.833330,Point
23531,1976-01-01T00:00:00.000,Fell,Sheyang,Valid,605,33.650000,120.066670,Point
23534,1921-01-01T00:00:00.000,Fell,Shikarpur,Valid,3679.7,25.850000,87.577500,Point
23582,1971-01-01T00:00:00.000,Fell,Shuangyang,Valid,3900,43.500000,125.666670,Point
23583,1912-01-01T00:00:00.000,Fell,Shupiyan,Valid,5000,33.716670,74.833330,Point
23584,1863-01-01T00:00:00.000,Fell,Shytal,Valid,3200,24.333330,90.166670,Point
23586,1794-01-01T00:00:00.000,Fell,Siena,Valid,3700,43.116670,11.600000,Point
23593,1947-01-01T00:00:00.000,Fell,Sikhote-Alin,Valid,23000000,46.160000,134.653330,Point
23594,1995-01-01T00:00:00.000,Fell,Silao,Valid,1710,20.933330,-101.383330,Point
55584,1917-01-01T00:00:00.000,Fell,Silistra,Valid,0.15,44.116670,27.266670,Point
23603,1920-01-01T00:00:00.000,Fell,Simmern,Valid,1222,49.983330,7.533330,Point
23606,1916-01-01T00:00:00.000,Fell,Sinai,Valid,1455,30.900000,32.483330,Point
23611,1901-01-01T00:00:00.000,Fell,Sindhri,Valid,8400,26.216670,69.550000,Point
23613,1956-01-01T00:00:00.000,Fell,Sinnai,Valid,2000,39.300000,9.200000,Point
23614,1933-01-01T00:00:00.000,Fell,Sioux County,Valid,4100,42.583330,-103.666670,Point
23616,1875-01-01T00:00:00.000,Fell,Sitathali,Valid,1600,20.916670,82.583330,Point
23617,1989-01-01T00:00:00.000,Fell,Sivas,Valid,40000,39.824670,36.135830,Point
23619,1989-01-01T00:00:00.000,Fell,Sixiangkou,Valid,630,32.433330,119.866670,Point
23621,1848-01-01T00:00:00.000,Fell,Ski,Valid,850,59.733330,10.866670,Point
23626,1868-01-01T00:00:00.000,Fell,Slavetic,Valid,1708,45.683330,15.600000,Point
23645,1818-01-01T00:00:00.000,Fell,Slobodka,Valid,2750,55.000000,35.000000,Point
23660,1960-01-01T00:00:00.000,Fell,Soheria,Valid,72.900000000000006,27.133330,84.066670,Point
23661,1877-01-01T00:00:00.000,Fell,Soko-Banja,Valid,80000,43.666670,21.866670,Point
23663,1860-01-01T00:00:00.000,Fell,Sologne,Valid,54,47.366670,1.733330,Point
53829,2011-01-01T00:00:00.000,Fell,Sołtmany,Valid,1066,54.008830,22.005000,Point
23667,1866-01-01T00:00:00.000,Fell,Sone,Valid,17100,35.166670,135.333330,Point
23668,1993-01-01T00:00:00.000,Fell,Songyuan,Valid,36900,45.250000,125.000000,Point
23670,1927-01-01T00:00:00.000,Fell,Sopot,Valid,958,44.416670,23.500000,Point
23671,1945-01-01T00:00:00.000,Fell,Soroti,Valid,2050,1.700000,33.633330,Point
23081,1883-01-01T00:00:00.000,Fell,St. Caprais-de-Quinsac,Valid,360,44.750000,0.050000,Point
23082,1841-01-01T00:00:00.000,Fell,St. Christophe-la-Chartreuse,Valid,5500,46.950000,-1.500000,Point
23083,1855-01-01T00:00:00.000,Fell,St. Denis Westrem,Valid,700,51.050000,3.750000,Point
23087,1890-01-01T00:00:00.000,Fell,St. Germain-du-Pinel,Valid,4000,48.016670,-1.150000,Point
23089,1950-01-01T00:00:00.000,Fell,St. Louis,Valid,1000,38.700000,-90.233330,Point
23090,1903-01-01T00:00:00.000,Fell,St. Mark's,Valid,13780,-32.016670,27.416670,Point
23091,1919-01-01T00:00:00.000,Fell,St. Mary's County,Valid,24.3,38.166670,-76.383330,Point
23092,1866-01-01T00:00:00.000,Fell,St. Mesmin,Valid,8300,48.450000,3.933330,Point
23093,1910-01-01T00:00:00.000,Fell,St. Michel,Valid,17000,61.650000,27.200000,Point
23097,1959-01-01T00:00:00.000,Fell,St.-Chinian,Valid,134.30000000000001,43.433330,2.950000,Point
23712,1876-01-01T00:00:00.000,Fell,Ställdalen,Valid,34000,59.933330,14.950000,Point
23713,1808-01-01T00:00:00.000,Fell,Stannern,Valid,52000,49.283330,15.566670,Point
23717,1857-01-01T00:00:00.000,Fell,Stavropol,Valid,1500,45.050000,41.983330,Point
23099,1962-01-01T00:00:00.000,Fell,Ste. Marguerite,Valid,4960,50.766670,3.000000,Point
23724,1990-01-01T00:00:00.000,Fell,Sterlitamak,Valid,325000,53.666670,55.983330,Point
23726,1647-01-01T00:00:00.000,Fell,Stolzenau,Valid,,52.533330,9.050000,Point
23728,1974-01-01T00:00:00.000,Fell,Stratford,Valid,50,41.200000,-73.133330,Point
23729,1917-01-01T00:00:00.000,Fell,Strathmore,Valid,13400,56.583330,-3.250000,Point
23732,1623-01-01T00:00:00.000,Fell,Stretchleigh,Valid,10400,50.383330,-3.950000,Point
23733,1994-01-01T00:00:00.000,Fell,St-Robert,Valid,25400,45.968610,-72.978060,Point
23736,1924-01-01T00:00:00.000,Fell,Success,Valid,3500,36.483330,-90.666670,Point
23737,1969-01-01T00:00:00.000,Fell,Suchy Dul,Valid,815.3,50.538060,16.263330,Point
23738,1986-01-01T00:00:00.000,Fell,Suizhou,Valid,260000,31.616670,113.466670,Point
48951,2008-01-01T00:00:00.000,Fell,Sulagiri,Valid,110000,12.666670,78.033330,Point
23741,1916-01-01T00:00:00.000,Fell,Sultanpur,Valid,1710.5,25.933330,84.283330,Point
23745,1935-01-01T00:00:00.000,Fell,Sungach,Valid,637,44.866670,133.166670,Point
23760,1865-01-01T00:00:00.000,Fell,Supuhee,Valid,7235,26.716670,84.216670,Point
55529,2012-01-01T00:00:00.000,Fell,Sutter's Mill,Valid,992.5,38.803890,-120.908060,Point
23773,1954-01-01T00:00:00.000,Fell,Sylacauga,Valid,5560,33.188360,-86.294500,Point
23776,1753-01-01T00:00:00.000,Fell,Tabor,Valid,7540,49.400000,14.650000,Point
23778,1867-01-01T00:00:00.000,Fell,Tadjera,Valid,9000,36.183330,5.416670,Point
23782,2000-01-01T00:00:00.000,Fell,Tagish Lake,Valid,10000,59.704440,-134.201390,Point
23784,1991-01-01T00:00:00.000,Fell,Tahara,Valid,1000,34.720000,137.305000,Point
23789,1880-01-01T00:00:00.000,Fell,Takenouchi,Valid,720,35.383330,134.900000,Point
23791,1995-01-01T00:00:00.000,Fell,Talampaya,Valid,1421,,,
23795,1975-01-01T00:00:00.000,Fell,Tambakwatu,Valid,10500,-7.750000,112.766670,Point
48691,2008-01-01T00:00:00.000,Fell,Tamdakht,Valid,100000,31.163330,-7.015000,Point
23801,1918-01-01T00:00:00.000,Fell,Tané,Valid,905,35.433330,136.233330,Point
23873,1965-01-01T00:00:00.000,Fell,Taonan,Valid,3850,45.400000,122.900000,Point
23884,1931-01-01T00:00:00.000,Fell,Tatahouine,Valid,12000,32.950000,10.416670,Point
23885,1967-01-01T00:00:00.000,Fell,Tathlith,Valid,2500,19.383330,43.733330,Point
23887,1929-01-01T00:00:00.000,Fell,Tauk,Valid,6000,35.133330,44.450000,Point
23888,1937-01-01T00:00:00.000,Fell,Tauti,Valid,21000,46.716670,23.500000,Point
23897,1879-01-01T00:00:00.000,Fell,Tenham,Valid,160000,-25.733330,142.950000,Point
23898,1872-01-01T00:00:00.000,Fell,Tennasilm,Valid,28500,58.033330,26.950000,Point
23908,1950-01-01T00:00:00.000,Fell,Thal,Valid,342,33.400000,70.600000,Point
54493,2011-01-01T00:00:00.000,Fell,Thika,Valid,14200,-1.002780,37.150280,Point
23976,2002-01-01T00:00:00.000,Fell,Thuathe,Valid,45300,-29.333330,27.583330,Point
23984,1986-01-01T00:00:00.000,Fell,Tianzhang,Valid,2232,32.946670,118.990000,Point
23989,1878-01-01T00:00:00.000,Fell,Tieschitz,Valid,28000,49.600000,17.116670,Point
23998,1927-01-01T00:00:00.000,Fell,Tilden,Valid,74800,38.200000,-89.683330,Point
23999,1970-01-01T00:00:00.000,Fell,Tillaberi,Valid,3000,14.250000,1.533330,Point
24004,1807-01-01T00:00:00.000,Fell,Timochin,Valid,65500,54.500000,35.200000,Point
24009,1934-01-01T00:00:00.000,Fell,Tirupati,Valid,230,13.633330,79.416670,Point
54823,2011-01-01T00:00:00.000,Fell,Tissint,Valid,7000,29.481950,-7.611230,Point
24011,1869-01-01T00:00:00.000,Fell,Tjabe,Valid,20000,-7.083330,111.533330,Point
24012,1922-01-01T00:00:00.000,Fell,Tjerebon,Valid,16500,-6.666670,106.583330,Point
24019,1905-01-01T00:00:00.000,Fell,Tomakovka,Valid,600,47.850000,34.766670,Point
